[
  {
    "id": "node/29015863",
    "lat": 28.467178,
    "lon": -16.2507843,
    "name": "Santa Cruz de Tenerife",
    "category": "place",
    "subtype": "city",
    "importance": 1
  },
  {
    "id": "node/29203063",
    "lat": 28.5054993,
    "lon": -16.1924944,
    "name": "San Andr\u00e9s",
    "category": "place",
    "subtype": "village",
    "importance": 1
  },
  {
    "id": "node/32969730",
    "lat": 28.5586846,
    "lon": -16.1754602,
    "name": "Roque Chinobre",
    "category": "natural",
    "subtype": "peak",
    "importance": 1
  },
  {
    "id": "node/76471275",
    "lat": 28.5691965,
    "lon": -16.3217392,
    "name": "Punta del Hidalgo",
    "category": "place",
    "subtype": "suburb",
    "importance": 1
  },
  {
    "id": "node/243672824",
    "lat": 28.3404454,
    "lon": -16.4173287,
    "name": "Arafo",
    "category": "place",
    "subtype": "village",
    "importance": 1
  },
  {
    "id": "node/250118646",
    "lat": 28.3929601,
    "lon": -16.4365683,
    "name": "Cuatro Tiempos",
    "category": "place",
    "subtype": "locality",
    "importance": 1
  },
  {
    "id": "node/256018044",
    "lat": 28.4028254,
    "lon": -16.3222984,
    "name": "Radazul Bajo",
    "category": "place",
    "subtype": "hamlet",
    "importance": 1
  },
  {
    "id": "node/264014008",
    "lat": 28.1674562,
    "lon": -16.4297623,
    "name": "Urbanizaci\u00f3n Casablanca",
    "category": "place",
    "subtype": "hamlet",
    "importance": 1
  },
  {
    "id": "node/278559162",
    "lat": 28.436303,
    "lon": -16.397668,
    "name": "Las Helecheras",
    "category": "place",
    "subtype": "locality",
    "importance": 1
  },
  {
    "id": "node/280739134",
    "lat": 28.4754552,
    "lon": -16.2476658,
    "name": "Museo Hist\u00f3rico Militar de Canarias",
    "category": "tourism",
    "subtype": "museum",
    "importance": 1
  },
  {
    "id": "node/281566417",
    "lat": 28.4332866,
    "lon": -16.4067512,
    "name": "Plaza La Paz",
    "category": "place",
    "subtype": "locality",
    "importance": 1
  },
  {
    "id": "node/281570123",
    "lat": 28.4262299,
    "lon": -16.3853221,
    "name": "Llano de Abote",
    "category": "place",
    "subtype": "locality",
    "importance": 1
  },
  {
    "id": "node/282200277",
    "lat": 28.5232609,
    "lon": -16.3407638,
    "name": "Tegueste",
    "category": "place",
    "subtype": "town",
    "importance": 1
  },
  {
    "id": "node/283076817",
    "lat": 28.3656258,
    "lon": -16.476764,
    "name": "Portillo el Topo",
    "category": "place",
    "subtype": "locality",
    "importance": 1
  },
  {
    "id": "node/291564779",
    "lat": 28.3991757,
    "lon": -16.4839733,
    "name": "Cuatro Caminos",
    "category": "place",
    "subtype": "locality",
    "importance": 1
  },
  {
    "id": "node/295988511",
    "lat": 28.5698076,
    "lon": -16.1706474,
    "name": "Cabezo del Tejo",
    "category": "tourism",
    "subtype": "viewpoint",
    "importance": 1
  },
  {
    "id": "node/295988562",
    "lat": 28.5662998,
    "lon": -16.1694824,
    "name": "Roque Anambro",
    "category": "natural",
    "subtype": "peak",
    "importance": 1
  },
  {
    "id": "node/295988580",
    "lat": 28.5632848,
    "lon": -16.1713287,
    "name": "Piedra La Jurada",
    "category": "tourism",
    "subtype": "viewpoint",
    "importance": 1
  },
  {
    "id": "node/295989290",
    "lat": 28.5699607,
    "lon": -16.159067,
    "name": "Chamorga",
    "category": "place",
    "subtype": "quarter",
    "importance": 1
  },
  {
    "id": "node/295993517",
    "lat": 28.5771524,
    "lon": -16.1526917,
    "name": "Casas de Tafada",
    "category": "historic",
    "subtype": "ruins",
    "importance": 1
  },
  {
    "id": "node/296364230",
    "lat": 28.4151836,
    "lon": -16.4426923,
    "name": "Hoya del Abade",
    "category": "place",
    "subtype": "locality",
    "importance": 1
  },
  {
    "id": "node/296364254",
    "lat": 28.4164057,
    "lon": -16.4387106,
    "name": "Charco de Juan Gordo",
    "category": "place",
    "subtype": "locality",
    "importance": 1
  },
  {
    "id": "node/296364306",
    "lat": 28.4250733,
    "lon": -16.4317041,
    "name": "Hoya Larga",
    "category": "place",
    "subtype": "locality",
    "importance": 1
  },
  {
    "id": "node/299613346",
    "lat": 28.5473922,
    "lon": -16.2791821,
    "name": "Degollada de las Escaleras",
    "category": "place",
    "subtype": "locality",
    "importance": 1
  },
  {
    "id": "node/299613527",
    "lat": 28.564846,
    "lon": -16.2947605,
    "name": "Mirador de Aguaide",
    "category": "tourism",
    "subtype": "viewpoint",
    "importance": 1
  },
  {
    "id": "node/300677968",
    "lat": 28.5390426,
    "lon": -16.2978895,
    "name": "Mirador del Escob\u00f3n",
    "category": "tourism",
    "subtype": "viewpoint",
    "importance": 1
  },
  {
    "id": "node/301004127",
    "lat": 28.4293135,
    "lon": -16.4257093,
    "name": "Los Revolcaderos",
    "category": "place",
    "subtype": "locality",
    "importance": 1
  },
  {
    "id": "node/301004344",
    "lat": 28.4330008,
    "lon": -16.4249218,
    "name": "Acevi\u00f1o del Clavo",
    "category": "place",
    "subtype": "locality",
    "importance": 1
  },
  {
    "id": "node/301235241",
    "lat": 28.5609575,
    "lon": -16.2177921,
    "name": "Taganana",
    "category": "place",
    "subtype": "quarter",
    "importance": 1
  },
  {
    "id": "node/301437192",
    "lat": 28.561938,
    "lon": -16.2911512,
    "name": "Chinamada",
    "category": "place",
    "subtype": "hamlet",
    "importance": 1
  },
  {
    "id": "node/302400277",
    "lat": 28.5216478,
    "lon": -16.3160345,
    "name": "Pedro \u00c1lvarez",
    "category": "place",
    "subtype": "hamlet",
    "importance": 1
  },
  {
    "id": "node/302400526",
    "lat": 28.5560603,
    "lon": -16.2648026,
    "name": "Taborno",
    "category": "place",
    "subtype": "quarter",
    "importance": 1
  },
  {
    "id": "node/302687280",
    "lat": 28.5266643,
    "lon": -16.2615683,
    "name": "Cuatro Caminos",
    "category": "place",
    "subtype": "locality",
    "importance": 1
  },
  {
    "id": "node/304841511",
    "lat": 28.416998,
    "lon": -16.3947721,
    "name": "El Hoy\u00f3n",
    "category": "place",
    "subtype": "locality",
    "importance": 1
  },
  {
    "id": "node/311513838",
    "lat": 28.5539935,
    "lon": -16.276531,
    "name": "Las Carboneras",
    "category": "place",
    "subtype": "hamlet",
    "importance": 1
  },
  {
    "id": "node/312911942",
    "lat": 28.4850693,
    "lon": -16.3169281,
    "name": "Centro de Salud La Laguna",
    "category": "amenity",
    "subtype": "clinic",
    "importance": 1
  },
  {
    "id": "node/320015365",
    "lat": 28.54786,
    "lon": -16.2961955,
    "name": "Los Batanes",
    "category": "place",
    "subtype": "hamlet",
    "importance": 1
  },
  {
    "id": "node/320244831",
    "lat": 28.547616,
    "lon": -16.3038919,
    "name": "Bejia",
    "category": "place",
    "subtype": "hamlet",
    "importance": 1
  },
  {
    "id": "node/320895344",
    "lat": 28.5538241,
    "lon": -16.3457221,
    "name": "Bajamar",
    "category": "place",
    "subtype": "suburb",
    "importance": 1
  },
  {
    "id": "node/343504869",
    "lat": 28.5390985,
    "lon": -16.3097267,
    "name": "El Juntadero",
    "category": "place",
    "subtype": "locality",
    "importance": 1
  },
  {
    "id": "node/343559411",
    "lat": 28.5356813,
    "lon": -16.3081516,
    "name": "Las Cuadras",
    "category": "place",
    "subtype": "locality",
    "importance": 1
  },
  {
    "id": "node/361345383",
    "lat": 28.2962965,
    "lon": -16.3744906,
    "name": "Puertito de G\u00fc\u00edmar",
    "category": "place",
    "subtype": "village",
    "importance": 1
  },
  {
    "id": "node/361359954",
    "lat": 28.5781606,
    "lon": -16.1486123,
    "name": "Monta\u00f1a de Tafada",
    "category": "natural",
    "subtype": "peak",
    "importance": 1
  },
  {
    "id": "node/361359956",
    "lat": 28.5552576,
    "lon": -16.2479154,
    "name": "Afur",
    "category": "place",
    "subtype": "quarter",
    "importance": 1
  },
  {
    "id": "node/365170477",
    "lat": 28.5571244,
    "lon": -16.300953,
    "name": "El Tomadero",
    "category": "place",
    "subtype": "locality",
    "importance": 1
  },
  {
    "id": "node/420144845",
    "lat": 28.4100624,
    "lon": -16.425323,
    "name": "Siete Fuentes",
    "category": "place",
    "subtype": "locality",
    "importance": 1
  },
  {
    "id": "node/512543642",
    "lat": 28.4703183,
    "lon": -16.2637887,
    "name": "Salamanca",
    "category": "place",
    "subtype": "suburb",
    "importance": 1
  },
  {
    "id": "node/544737137",
    "lat": 28.3763058,
    "lon": -16.3619275,
    "name": "Las Caletillas",
    "category": "place",
    "subtype": "suburb",
    "importance": 1
  },
  {
    "id": "node/544739230",
    "lat": 28.3546715,
    "lon": -16.3710091,
    "name": "Candelaria",
    "category": "place",
    "subtype": "town",
    "importance": 1
  },
  {
    "id": "node/554792546",
    "lat": 28.4318669,
    "lon": -16.4951724,
    "name": "La Quinta",
    "category": "place",
    "subtype": "suburb",
    "importance": 1
  },
  {
    "id": "node/554797748",
    "lat": 28.4253094,
    "lon": -16.4917392,
    "name": "Santa \u00darsula",
    "category": "place",
    "subtype": "town",
    "importance": 1
  },
  {
    "id": "node/554802967",
    "lat": 28.4582248,
    "lon": -16.4642713,
    "name": "El Calet\u00f3n",
    "category": "place",
    "subtype": "hamlet",
    "importance": 1
  },
  {
    "id": "node/554805562",
    "lat": 28.4361771,
    "lon": -16.482373,
    "name": "Los Luchaderos",
    "category": "place",
    "subtype": "locality",
    "importance": 1
  },
  {
    "id": "node/554808715",
    "lat": 28.4347861,
    "lon": -16.4681748,
    "name": "La Victoria de Acentejo",
    "category": "place",
    "subtype": "town",
    "importance": 1
  },
  {
    "id": "node/554814283",
    "lat": 28.4805316,
    "lon": -16.4137605,
    "name": "Tacoronte",
    "category": "place",
    "subtype": "town",
    "importance": 1
  },
  {
    "id": "node/557226491",
    "lat": 28.3135817,
    "lon": -16.3773268,
    "name": "Monta\u00f1a Grande",
    "category": "natural",
    "subtype": "volcano",
    "importance": 1
  },
  {
    "id": "node/557269717",
    "lat": 28.3731466,
    "lon": -16.459524,
    "name": "Mirador de Chimague",
    "category": "tourism",
    "subtype": "viewpoint",
    "importance": 1
  },
  {
    "id": "node/568459631",
    "lat": 28.566629,
    "lon": -16.2659155,
    "name": "Roque de Taborno",
    "category": "natural",
    "subtype": "peak",
    "importance": 1
  },
  {
    "id": "node/568459669",
    "lat": 28.5694221,
    "lon": -16.2655242,
    "name": "Mirador Roque de Taborno",
    "category": "tourism",
    "subtype": "viewpoint",
    "importance": 1
  },
  {
    "id": "node/575946848",
    "lat": 28.5365655,
    "lon": -16.2689718,
    "name": "Cruz de Taborno",
    "category": "natural",
    "subtype": "peak",
    "importance": 1
  },
  {
    "id": "node/576904999",
    "lat": 28.3551025,
    "lon": -16.4667442,
    "name": "Monta\u00f1a Ayosa",
    "category": "natural",
    "subtype": "peak",
    "importance": 1
  },
  {
    "id": "node/588143239",
    "lat": 28.3402141,
    "lon": -16.4620838,
    "name": "Volcan de Arafo",
    "category": "natural",
    "subtype": "volcano",
    "importance": 1
  },
  {
    "id": "node/591953212",
    "lat": 28.5374006,
    "lon": -16.1559206,
    "name": "Lomo Bermejo",
    "category": "place",
    "subtype": "neighbourhood",
    "importance": 1
  },
  {
    "id": "node/592642741",
    "lat": 28.3107646,
    "lon": -16.3618782,
    "name": "Mirador de la Monta\u00f1a de la Mar",
    "category": "tourism",
    "subtype": "viewpoint",
    "importance": 1
  },
  {
    "id": "node/595306044",
    "lat": 28.5630312,
    "lon": -16.1544041,
    "name": "Lomo de las Bodegas",
    "category": "place",
    "subtype": "quarter",
    "importance": 1
  },
  {
    "id": "node/595447362",
    "lat": 28.5793874,
    "lon": -16.13499,
    "name": "Roque Bermejo",
    "category": "tourism",
    "subtype": "viewpoint",
    "importance": 1
  },
  {
    "id": "node/598347914",
    "lat": 28.5639599,
    "lon": -16.2945755,
    "name": "Morro Aguaide",
    "category": "natural",
    "subtype": "peak",
    "importance": 1
  },
  {
    "id": "node/599051917",
    "lat": 28.5849461,
    "lon": -16.164259,
    "name": "Las Palmas",
    "category": "place",
    "subtype": "neighbourhood",
    "importance": 1
  },
  {
    "id": "node/599051999",
    "lat": 28.581323,
    "lon": -16.140021,
    "name": "Faro de Anaga",
    "category": "man_made",
    "subtype": "lighthouse",
    "importance": 1
  },
  {
    "id": "node/599052956",
    "lat": 28.5712917,
    "lon": -16.1970412,
    "name": "Alm\u00e1ciga",
    "category": "place",
    "subtype": "quarter",
    "importance": 1
  },
  {
    "id": "node/599052957",
    "lat": 28.5742183,
    "lon": -16.1879192,
    "name": "Benijo",
    "category": "place",
    "subtype": "neighbourhood",
    "importance": 1
  },
  {
    "id": "node/599052958",
    "lat": 28.5785478,
    "lon": -16.1748865,
    "name": "El Draguillo",
    "category": "place",
    "subtype": "neighbourhood",
    "importance": 1
  },
  {
    "id": "node/609954984",
    "lat": 28.3784833,
    "lon": -16.4991648,
    "name": "Museo Etnogr\u00e1fico de Pinolere",
    "category": "tourism",
    "subtype": "museum",
    "importance": 1
  },
  {
    "id": "node/609982227",
    "lat": 28.4063279,
    "lon": -16.4667461,
    "name": "Las Cabezadas",
    "category": "place",
    "subtype": "locality",
    "importance": 1
  },
  {
    "id": "node/610228098",
    "lat": 28.3824231,
    "lon": -16.3737549,
    "name": "Igueste",
    "category": "place",
    "subtype": "suburb",
    "importance": 1
  },
  {
    "id": "node/610234994",
    "lat": 28.4656081,
    "lon": -16.4054281,
    "name": "Agua Garc\u00eda",
    "category": "place",
    "subtype": "suburb",
    "importance": 1
  },
  {
    "id": "node/610234996",
    "lat": 28.4302867,
    "lon": -16.3913671,
    "name": "Pico de las Flores",
    "category": "natural",
    "subtype": "peak",
    "importance": 1
  },
  {
    "id": "node/610283731",
    "lat": 28.3150189,
    "lon": -16.4099501,
    "name": "G\u00fc\u00edmar",
    "category": "place",
    "subtype": "town",
    "importance": 1
  },
  {
    "id": "node/610297939",
    "lat": 28.4523588,
    "lon": -16.3670301,
    "name": "La Esperanza",
    "category": "place",
    "subtype": "village",
    "importance": 1
  },
  {
    "id": "node/637991388",
    "lat": 28.386462,
    "lon": -16.375122,
    "name": "Mirador de Igueste",
    "category": "tourism",
    "subtype": "viewpoint",
    "importance": 1
  },
  {
    "id": "node/638978287",
    "lat": 28.3904562,
    "lon": -16.4713352,
    "name": "Roque Chico",
    "category": "place",
    "subtype": "locality",
    "importance": 1
  },
  {
    "id": "node/639178651",
    "lat": 28.2494902,
    "lon": -16.4248965,
    "name": "Monta\u00f1a B\u00e9\u00f1amo",
    "category": "natural",
    "subtype": "peak",
    "importance": 1
  },
  {
    "id": "node/639231789",
    "lat": 28.4264788,
    "lon": -16.430346,
    "name": "Fuente de las Burras",
    "category": "place",
    "subtype": "locality",
    "importance": 1
  },
  {
    "id": "node/639594194",
    "lat": 28.2635898,
    "lon": -16.4277952,
    "name": "El Escobonal",
    "category": "place",
    "subtype": "hamlet",
    "importance": 1
  },
  {
    "id": "node/639595759",
    "lat": 28.2800714,
    "lon": -16.4092487,
    "name": "La Medida",
    "category": "place",
    "subtype": "hamlet",
    "importance": 1
  },
  {
    "id": "node/639597643",
    "lat": 28.2356006,
    "lon": -16.4393504,
    "name": "Fasnia",
    "category": "place",
    "subtype": "village",
    "importance": 1
  },
  {
    "id": "node/639606691",
    "lat": 28.2218636,
    "lon": -16.4583868,
    "name": "La Sombrera",
    "category": "place",
    "subtype": "hamlet",
    "importance": 1
  },
  {
    "id": "node/639620544",
    "lat": 28.2044017,
    "lon": -16.455887,
    "name": "Icor",
    "category": "historic",
    "subtype": "ruins",
    "importance": 1
  },
  {
    "id": "node/639636483",
    "lat": 28.1825227,
    "lon": -16.4797981,
    "name": "Arico Viejo",
    "category": "place",
    "subtype": "hamlet",
    "importance": 1
  },
  {
    "id": "node/639637121",
    "lat": 28.1780947,
    "lon": -16.4797479,
    "name": "Arico el Nuevo",
    "category": "place",
    "subtype": "hamlet",
    "importance": 1
  },
  {
    "id": "node/640411635",
    "lat": 28.2360569,
    "lon": -16.4555889,
    "name": "La Zarza",
    "category": "place",
    "subtype": "hamlet",
    "importance": 1
  },
  {
    "id": "node/644532766",
    "lat": 28.5318347,
    "lon": -16.2806547,
    "name": "Cruz del Carmen",
    "category": "tourism",
    "subtype": "viewpoint",
    "importance": 1
  },
  {
    "id": "node/644536145",
    "lat": 28.5310121,
    "lon": -16.2798923,
    "name": "Cruz del Carmen",
    "category": "place",
    "subtype": "locality",
    "importance": 1
  },
  {
    "id": "node/644537704",
    "lat": 28.5345377,
    "lon": -16.2671291,
    "name": "Cruz de Afur",
    "category": "place",
    "subtype": "isolated_dwelling",
    "importance": 1
  },
  {
    "id": "node/644540075",
    "lat": 28.5334614,
    "lon": -16.2642967,
    "name": "Pico del Ingl\u00e9s",
    "category": "natural",
    "subtype": "peak",
    "importance": 1
  },
  {
    "id": "node/644577561",
    "lat": 28.5401793,
    "lon": -16.2768543,
    "name": "Casas del R\u00edo",
    "category": "place",
    "subtype": "hamlet",
    "importance": 1
  },
  {
    "id": "node/644597615",
    "lat": 28.5865446,
    "lon": -16.1501108,
    "name": "Casa de Las Bre\u00f1as",
    "category": "historic",
    "subtype": "ruins",
    "importance": 1
  },
  {
    "id": "node/644600448",
    "lat": 28.5507588,
    "lon": -16.2451415,
    "name": "Roque Alonso",
    "category": "natural",
    "subtype": "peak",
    "importance": 1
  },
  {
    "id": "node/644603217",
    "lat": 28.5510504,
    "lon": -16.2409222,
    "name": "Enchir\u00e9s",
    "category": "place",
    "subtype": "neighbourhood",
    "importance": 1
  },
  {
    "id": "node/644603301",
    "lat": 28.5431904,
    "lon": -16.2468659,
    "name": "Roque Negro",
    "category": "place",
    "subtype": "quarter",
    "importance": 1
  },
  {
    "id": "node/644603690",
    "lat": 28.5412881,
    "lon": -16.2433581,
    "name": "Roque Negro",
    "category": "natural",
    "subtype": "peak",
    "importance": 1
  },
  {
    "id": "node/644607571",
    "lat": 28.5359714,
    "lon": -16.2364059,
    "name": "Casas de la Cumbre",
    "category": "place",
    "subtype": "quarter",
    "importance": 1
  },
  {
    "id": "node/645550256",
    "lat": 28.5312256,
    "lon": -16.2579918,
    "name": "Roque del Agua",
    "category": "natural",
    "subtype": "peak",
    "importance": 1
  },
  {
    "id": "node/645590680",
    "lat": 28.4801192,
    "lon": -16.2841346,
    "name": "Monta\u00f1a Guerra",
    "category": "natural",
    "subtype": "volcano",
    "importance": 1
  },
  {
    "id": "node/645615470",
    "lat": 28.4845646,
    "lon": -16.2624372,
    "name": "Los Campitos",
    "category": "place",
    "subtype": "suburb",
    "importance": 1
  },
  {
    "id": "node/645616532",
    "lat": 28.4880724,
    "lon": -16.2785304,
    "name": "Valle Jim\u00e9nez",
    "category": "place",
    "subtype": "suburb",
    "importance": 1
  },
  {
    "id": "node/645618849",
    "lat": 28.4834329,
    "lon": -16.2915337,
    "name": "Valle Tabares",
    "category": "place",
    "subtype": "suburb",
    "importance": 1
  },
  {
    "id": "node/645781023",
    "lat": 28.4731602,
    "lon": -16.2688387,
    "name": "Barrio Nuevo",
    "category": "place",
    "subtype": "suburb",
    "importance": 1
  },
  {
    "id": "node/645783834",
    "lat": 28.4753093,
    "lon": -16.2687842,
    "name": "Cueva Roja",
    "category": "place",
    "subtype": "locality",
    "importance": 1
  },
  {
    "id": "node/647046419",
    "lat": 28.507686,
    "lon": -16.2950486,
    "name": "Pico Gonzali\u00e1nez",
    "category": "natural",
    "subtype": "peak",
    "importance": 1
  },
  {
    "id": "node/647079350",
    "lat": 28.5133718,
    "lon": -16.3066461,
    "name": "Las Canteras",
    "category": "place",
    "subtype": "suburb",
    "importance": 1
  },
  {
    "id": "node/647119135",
    "lat": 28.5054933,
    "lon": -16.3330333,
    "name": "Monta\u00f1a de la Bandera",
    "category": "natural",
    "subtype": "peak",
    "importance": 1
  },
  {
    "id": "node/647120527",
    "lat": 28.5090495,
    "lon": -16.3371225,
    "name": "El Espa\u00f1ol",
    "category": "natural",
    "subtype": "peak",
    "importance": 1
  },
  {
    "id": "node/647123853",
    "lat": 28.4958039,
    "lon": -16.3033482,
    "name": "Mesa la Gallardina",
    "category": "natural",
    "subtype": "peak",
    "importance": 1
  },
  {
    "id": "node/647131521",
    "lat": 28.4887233,
    "lon": -16.3098715,
    "name": "Monta\u00f1a San Roque",
    "category": "natural",
    "subtype": "peak",
    "importance": 1
  },
  {
    "id": "node/647133081",
    "lat": 28.5017489,
    "lon": -16.2984553,
    "name": "Pico Colorado",
    "category": "natural",
    "subtype": "peak",
    "importance": 1
  },
  {
    "id": "node/647703969",
    "lat": 28.4935556,
    "lon": -16.3491796,
    "name": "El P\u00falpito",
    "category": "natural",
    "subtype": "peak",
    "importance": 1
  },
  {
    "id": "node/647720815",
    "lat": 28.5007721,
    "lon": -16.338815,
    "name": "Monta\u00f1a de la Atalaya",
    "category": "natural",
    "subtype": "peak",
    "importance": 1
  },
  {
    "id": "node/647784695",
    "lat": 28.4964931,
    "lon": -16.2680856,
    "name": "Pico la Sabina",
    "category": "natural",
    "subtype": "peak",
    "importance": 1
  },
  {
    "id": "node/647785449",
    "lat": 28.4929078,
    "lon": -16.2610319,
    "name": "Roque las Cabezadas",
    "category": "natural",
    "subtype": "peak",
    "importance": 1
  },
  {
    "id": "node/647786798",
    "lat": 28.487788,
    "lon": -16.2584809,
    "name": "Monta\u00f1a de la Le\u00f1a",
    "category": "natural",
    "subtype": "peak",
    "importance": 1
  },
  {
    "id": "node/647789493",
    "lat": 28.4833722,
    "lon": -16.2540694,
    "name": "La Meseta",
    "category": "natural",
    "subtype": "peak",
    "importance": 1
  },
  {
    "id": "node/647790109",
    "lat": 28.4833016,
    "lon": -16.2437234,
    "name": "La Alegr\u00eda",
    "category": "place",
    "subtype": "suburb",
    "importance": 1
  },
  {
    "id": "node/647840444",
    "lat": 28.470775,
    "lon": -16.2725667,
    "name": "La Salud",
    "category": "place",
    "subtype": "suburb",
    "importance": 1
  },
  {
    "id": "node/648469283",
    "lat": 28.5512879,
    "lon": -16.2297214,
    "name": "Las Piletas",
    "category": "place",
    "subtype": "isolated_dwelling",
    "importance": 1
  },
  {
    "id": "node/648488015",
    "lat": 28.5148448,
    "lon": -16.2503975,
    "name": "Roque la Fortaleza",
    "category": "natural",
    "subtype": "peak",
    "importance": 1
  },
  {
    "id": "node/648488023",
    "lat": 28.5194473,
    "lon": -16.2544666,
    "name": "Roque Marrubial",
    "category": "natural",
    "subtype": "peak",
    "importance": 1
  },
  {
    "id": "node/649756104",
    "lat": 28.4334198,
    "lon": -16.3375103,
    "name": "Talavera",
    "category": "natural",
    "subtype": "volcano",
    "importance": 1
  },
  {
    "id": "node/649801235",
    "lat": 28.4394267,
    "lon": -16.3549417,
    "name": "Birmagen",
    "category": "natural",
    "subtype": "volcano",
    "importance": 1
  },
  {
    "id": "node/649834222",
    "lat": 28.4260355,
    "lon": -16.3779068,
    "name": "Las Ra\u00edces",
    "category": "place",
    "subtype": "locality",
    "importance": 1
  },
  {
    "id": "node/649837137",
    "lat": 28.4292442,
    "lon": -16.3828006,
    "name": "Monta\u00f1a Grande",
    "category": "natural",
    "subtype": "peak",
    "importance": 1
  },
  {
    "id": "node/649842261",
    "lat": 28.4158874,
    "lon": -16.4079704,
    "name": "Las Lagunetas",
    "category": "place",
    "subtype": "hamlet",
    "importance": 1
  },
  {
    "id": "node/649964262",
    "lat": 28.5660505,
    "lon": -16.2117679,
    "name": "Roque de las \u00c1nimas",
    "category": "natural",
    "subtype": "peak",
    "importance": 1
  },
  {
    "id": "node/649964263",
    "lat": 28.5709268,
    "lon": -16.2039197,
    "name": "Roque de las Bodegas",
    "category": "place",
    "subtype": "locality",
    "importance": 1
  },
  {
    "id": "node/649964266",
    "lat": 28.5586393,
    "lon": -16.206677,
    "name": "Roque Maogoje",
    "category": "natural",
    "subtype": "peak",
    "importance": 1
  },
  {
    "id": "node/649964268",
    "lat": 28.5625196,
    "lon": -16.2091085,
    "name": "Roque de Enmedio",
    "category": "natural",
    "subtype": "peak",
    "importance": 1
  },
  {
    "id": "node/650089990",
    "lat": 28.5502142,
    "lon": -16.2045874,
    "name": "El Bailadero",
    "category": "place",
    "subtype": "quarter",
    "importance": 1
  },
  {
    "id": "node/650128700",
    "lat": 28.5503867,
    "lon": -16.2802088,
    "name": "Roque Tenej\u00eda",
    "category": "natural",
    "subtype": "peak",
    "importance": 1
  },
  {
    "id": "node/650146185",
    "lat": 28.5571115,
    "lon": -16.242222,
    "name": "Roque P\u00e1ez",
    "category": "natural",
    "subtype": "peak",
    "importance": 1
  },
  {
    "id": "node/650149124",
    "lat": 28.5583366,
    "lon": -16.2364284,
    "name": "Cabezo el Tablero",
    "category": "natural",
    "subtype": "peak",
    "importance": 1
  },
  {
    "id": "node/650183630",
    "lat": 28.5257296,
    "lon": -16.1548505,
    "name": "Igueste de San Andr\u00e9s",
    "category": "place",
    "subtype": "quarter",
    "importance": 1
  },
  {
    "id": "node/650226838",
    "lat": 28.5300769,
    "lon": -16.147992,
    "name": "La Atalaya",
    "category": "natural",
    "subtype": "peak",
    "importance": 1
  },
  {
    "id": "node/650259133",
    "lat": 28.5516657,
    "lon": -16.2856708,
    "name": "Tam\u00e9",
    "category": "natural",
    "subtype": "peak",
    "importance": 1
  },
  {
    "id": "node/650261164",
    "lat": 28.5559035,
    "lon": -16.2912749,
    "name": "Roque Anube",
    "category": "natural",
    "subtype": "peak",
    "importance": 1
  },
  {
    "id": "node/650731227",
    "lat": 28.4798777,
    "lon": -16.4357489,
    "name": "El Sauzal",
    "category": "place",
    "subtype": "village",
    "importance": 1
  },
  {
    "id": "node/651297764",
    "lat": 28.5342201,
    "lon": -16.1275999,
    "name": "Roque de Antequera",
    "category": "natural",
    "subtype": "peak",
    "importance": 1
  },
  {
    "id": "node/651298593",
    "lat": 28.5555719,
    "lon": -16.1263242,
    "name": "Monta\u00f1a del Sabinar",
    "category": "natural",
    "subtype": "peak",
    "importance": 1
  },
  {
    "id": "node/651309965",
    "lat": 28.5660123,
    "lon": -16.1549881,
    "name": "La Cumbrilla",
    "category": "place",
    "subtype": "neighbourhood",
    "importance": 1
  },
  {
    "id": "node/656431683",
    "lat": 28.3906503,
    "lon": -16.3719418,
    "name": "Pasacola",
    "category": "historic",
    "subtype": "ruins",
    "importance": 1
  },
  {
    "id": "node/659516387",
    "lat": 28.3905183,
    "lon": -16.4783889,
    "name": "Los Asientos",
    "category": "natural",
    "subtype": "peak",
    "importance": 1
  },
  {
    "id": "node/659520613",
    "lat": 28.395195,
    "lon": -16.4814474,
    "name": "Monta\u00f1a de las Ovejas",
    "category": "natural",
    "subtype": "peak",
    "importance": 1
  },
  {
    "id": "node/660147954",
    "lat": 28.2290131,
    "lon": -16.4326728,
    "name": "Monta\u00f1a de Fasnia",
    "category": "natural",
    "subtype": "peak",
    "importance": 1
  },
  {
    "id": "node/661335303",
    "lat": 28.3593534,
    "lon": -16.4636194,
    "name": "Roque Ayesa",
    "category": "natural",
    "subtype": "peak",
    "importance": 1
  },
  {
    "id": "node/661378563",
    "lat": 28.3530147,
    "lon": -16.4708798,
    "name": "Roque Asebe",
    "category": "natural",
    "subtype": "peak",
    "importance": 1
  },
  {
    "id": "node/662269042",
    "lat": 28.3623165,
    "lon": -16.3936041,
    "name": "Araya",
    "category": "place",
    "subtype": "village",
    "importance": 1
  },
  {
    "id": "node/662302305",
    "lat": 28.371701,
    "lon": -16.4311999,
    "name": "Media Monta\u00f1a",
    "category": "natural",
    "subtype": "volcano",
    "importance": 1
  },
  {
    "id": "node/662602400",
    "lat": 28.3916108,
    "lon": -16.3844892,
    "name": "Monta\u00f1a Arguama",
    "category": "natural",
    "subtype": "peak",
    "importance": 1
  },
  {
    "id": "node/662620524",
    "lat": 28.4185248,
    "lon": -16.3634873,
    "name": "Las Barreras",
    "category": "place",
    "subtype": "hamlet",
    "importance": 1
  },
  {
    "id": "node/663251778",
    "lat": 28.3947885,
    "lon": -16.4332079,
    "name": "El Gaitero",
    "category": "natural",
    "subtype": "peak",
    "importance": 1
  },
  {
    "id": "node/663470068",
    "lat": 28.4008139,
    "lon": -16.3659816,
    "name": "El Picacho",
    "category": "natural",
    "subtype": "peak",
    "importance": 1
  },
  {
    "id": "node/667960998",
    "lat": 28.4997053,
    "lon": -16.4060812,
    "name": "San Juan de los Perales",
    "category": "place",
    "subtype": "suburb",
    "importance": 1
  },
  {
    "id": "node/670018378",
    "lat": 28.3610493,
    "lon": -16.4684852,
    "name": "Mirador de Ayosa",
    "category": "tourism",
    "subtype": "viewpoint",
    "importance": 1
  },
  {
    "id": "node/675273300",
    "lat": 28.488345,
    "lon": -16.23873,
    "name": "Valleseco",
    "category": "place",
    "subtype": "suburb",
    "importance": 1
  },
  {
    "id": "node/678383151",
    "lat": 28.3688568,
    "lon": -16.465007,
    "name": "Monta\u00f1a de Joco",
    "category": "natural",
    "subtype": "peak",
    "importance": 1
  },
  {
    "id": "node/678390856",
    "lat": 28.3350338,
    "lon": -16.4913858,
    "name": "Mirador de El Valle",
    "category": "tourism",
    "subtype": "viewpoint",
    "importance": 1
  },
  {
    "id": "node/678392567",
    "lat": 28.3334393,
    "lon": -16.4901697,
    "name": "Mirador La Tarta 2",
    "category": "tourism",
    "subtype": "viewpoint",
    "importance": 1
  },
  {
    "id": "node/678393401",
    "lat": 28.3340557,
    "lon": -16.4899599,
    "name": "Mirador La Tarta",
    "category": "tourism",
    "subtype": "viewpoint",
    "importance": 1
  },
  {
    "id": "node/701997245",
    "lat": 28.2926419,
    "lon": -16.4318706,
    "name": "Pino de Don Tom\u00e1s",
    "category": "place",
    "subtype": "locality",
    "importance": 1
  },
  {
    "id": "node/712906050",
    "lat": 28.548301,
    "lon": -16.283562,
    "name": "Los Morales",
    "category": "place",
    "subtype": "isolated_dwelling",
    "importance": 1
  },
  {
    "id": "node/719233209",
    "lat": 28.4411456,
    "lon": -16.3988244,
    "name": "Cuatro Veredas",
    "category": "place",
    "subtype": "locality",
    "importance": 1
  },
  {
    "id": "node/747669138",
    "lat": 28.4441559,
    "lon": -16.3811196,
    "name": "La Monta\u00f1eta",
    "category": "natural",
    "subtype": "peak",
    "importance": 1
  },
  {
    "id": "node/774545853",
    "lat": 28.148187,
    "lon": -16.4271882,
    "name": "Faro de Punta Abona",
    "category": "man_made",
    "subtype": "lighthouse",
    "importance": 1
  },
  {
    "id": "node/775848384",
    "lat": 28.3570462,
    "lon": -16.4009622,
    "name": "Cuatro Esquinas",
    "category": "place",
    "subtype": "hamlet",
    "importance": 1
  },
  {
    "id": "node/854357832",
    "lat": 28.1947179,
    "lon": -16.4229327,
    "name": "Las Eras",
    "category": "place",
    "subtype": "hamlet",
    "importance": 1
  },
  {
    "id": "node/854373789",
    "lat": 28.2200849,
    "lon": -16.4143282,
    "name": "Los Roques",
    "category": "place",
    "subtype": "hamlet",
    "importance": 1
  },
  {
    "id": "node/854380640",
    "lat": 28.24072,
    "lon": -16.402859,
    "name": "El Tablado",
    "category": "place",
    "subtype": "hamlet",
    "importance": 1
  },
  {
    "id": "node/854386170",
    "lat": 28.2735882,
    "lon": -16.3847488,
    "name": "La Caleta",
    "category": "place",
    "subtype": "hamlet",
    "importance": 1
  },
  {
    "id": "node/854391020",
    "lat": 28.2647248,
    "lon": -16.3877528,
    "name": "Punta Prieta",
    "category": "place",
    "subtype": "hamlet",
    "importance": 1
  },
  {
    "id": "node/854393672",
    "lat": 28.2843782,
    "lon": -16.4054554,
    "name": "P\u00e1jara",
    "category": "place",
    "subtype": "hamlet",
    "importance": 1
  },
  {
    "id": "node/854399470",
    "lat": 28.2893949,
    "lon": -16.4017218,
    "name": "Mirador de P\u00e1jara",
    "category": "tourism",
    "subtype": "viewpoint",
    "importance": 1
  },
  {
    "id": "node/854403738",
    "lat": 28.2716417,
    "lon": -16.418609,
    "name": "Lomo de Mena",
    "category": "place",
    "subtype": "hamlet",
    "importance": 1
  },
  {
    "id": "node/854414149",
    "lat": 28.3267513,
    "lon": -16.3638352,
    "name": "El Socorro",
    "category": "place",
    "subtype": "hamlet",
    "importance": 1
  },
  {
    "id": "node/854606756",
    "lat": 28.4249939,
    "lon": -16.3356525,
    "name": "El Tablero",
    "category": "place",
    "subtype": "suburb",
    "importance": 1
  },
  {
    "id": "node/854619580",
    "lat": 28.4140671,
    "lon": -16.3226814,
    "name": "San Isidro",
    "category": "place",
    "subtype": "hamlet",
    "importance": 1
  },
  {
    "id": "node/856511968",
    "lat": 28.4370958,
    "lon": -16.4371452,
    "name": "La Vica",
    "category": "place",
    "subtype": "hamlet",
    "importance": 1
  },
  {
    "id": "node/862907374",
    "lat": 28.4108617,
    "lon": -16.3130007,
    "name": "Costanera",
    "category": "place",
    "subtype": "hamlet",
    "importance": 1
  },
  {
    "id": "node/862922926",
    "lat": 28.402878,
    "lon": -16.3317762,
    "name": "Tabaiba Baja",
    "category": "place",
    "subtype": "hamlet",
    "importance": 1
  },
  {
    "id": "node/862923288",
    "lat": 28.4075966,
    "lon": -16.3314114,
    "name": "Tabaiba Media",
    "category": "place",
    "subtype": "hamlet",
    "importance": 1
  },
  {
    "id": "node/862923916",
    "lat": 28.4102955,
    "lon": -16.3339434,
    "name": "Tabaiba Alta",
    "category": "place",
    "subtype": "hamlet",
    "importance": 1
  },
  {
    "id": "node/862930245",
    "lat": 28.4071247,
    "lon": -16.3267122,
    "name": "Radazul Alto",
    "category": "place",
    "subtype": "hamlet",
    "importance": 1
  },
  {
    "id": "node/862930423",
    "lat": 28.4110834,
    "lon": -16.3295086,
    "name": "Llano Blanco",
    "category": "place",
    "subtype": "hamlet",
    "importance": 1
  },
  {
    "id": "node/862931077",
    "lat": 28.4241051,
    "lon": -16.3180487,
    "name": "El Chorrillo",
    "category": "place",
    "subtype": "suburb",
    "importance": 1
  },
  {
    "id": "node/862942530",
    "lat": 28.4398642,
    "lon": -16.371453,
    "name": "Las Rosas",
    "category": "place",
    "subtype": "village",
    "importance": 1
  },
  {
    "id": "node/862956416",
    "lat": 28.4158656,
    "lon": -16.339932,
    "name": "Machado",
    "category": "place",
    "subtype": "hamlet",
    "importance": 1
  },
  {
    "id": "node/862964321",
    "lat": 28.442223,
    "lon": -16.3343019,
    "name": "Llano del Moro",
    "category": "place",
    "subtype": "suburb",
    "importance": 1
  },
  {
    "id": "node/862971802",
    "lat": 28.4068492,
    "lon": -16.3137861,
    "name": "Bocacangrejo",
    "category": "place",
    "subtype": "hamlet",
    "importance": 1
  },
  {
    "id": "node/862985378",
    "lat": 28.4395342,
    "lon": -16.3684563,
    "name": "Lomo Pelado",
    "category": "place",
    "subtype": "hamlet",
    "importance": 1
  },
  {
    "id": "node/863004579",
    "lat": 28.4171251,
    "lon": -16.3046395,
    "name": "Acor\u00e1n",
    "category": "place",
    "subtype": "suburb",
    "importance": 1
  },
  {
    "id": "node/863016862",
    "lat": 28.4245049,
    "lon": -16.2998878,
    "name": "A\u00f1aza",
    "category": "place",
    "subtype": "suburb",
    "importance": 1
  },
  {
    "id": "node/863069808",
    "lat": 28.433348,
    "lon": -16.3213527,
    "name": "La Gallega",
    "category": "place",
    "subtype": "suburb",
    "importance": 1
  },
  {
    "id": "node/866237158",
    "lat": 28.3672237,
    "lon": -16.3652457,
    "name": "Punta Larga",
    "category": "place",
    "subtype": "suburb",
    "importance": 1
  },
  {
    "id": "node/866241719",
    "lat": 28.399842,
    "lon": -16.3580444,
    "name": "Barranco Hondo",
    "category": "place",
    "subtype": "suburb",
    "importance": 1
  },
  {
    "id": "node/866245213",
    "lat": 28.340652,
    "lon": -16.3679684,
    "name": "La Viuda",
    "category": "place",
    "subtype": "hamlet",
    "importance": 1
  },
  {
    "id": "node/866259238",
    "lat": 28.3576244,
    "lon": -16.3998765,
    "name": "Las Cuevecitas",
    "category": "place",
    "subtype": "village",
    "importance": 1
  },
  {
    "id": "node/866262722",
    "lat": 28.3505105,
    "lon": -16.4010994,
    "name": "Malpa\u00eds",
    "category": "place",
    "subtype": "hamlet",
    "importance": 1
  },
  {
    "id": "node/866340655",
    "lat": 28.333307,
    "lon": -16.3961973,
    "name": "La Hidalga",
    "category": "place",
    "subtype": "hamlet",
    "importance": 1
  },
  {
    "id": "node/866355394",
    "lat": 28.3147509,
    "lon": -16.4185512,
    "name": "La Hoya",
    "category": "place",
    "subtype": "hamlet",
    "importance": 1
  },
  {
    "id": "node/866358171",
    "lat": 28.3181133,
    "lon": -16.4184654,
    "name": "Chacaica",
    "category": "place",
    "subtype": "hamlet",
    "importance": 1
  },
  {
    "id": "node/866358765",
    "lat": 28.311615,
    "lon": -16.414367,
    "name": "Guaza",
    "category": "place",
    "subtype": "village",
    "importance": 1
  },
  {
    "id": "node/866363701",
    "lat": 28.3071661,
    "lon": -16.4246238,
    "name": "San Juan",
    "category": "place",
    "subtype": "hamlet",
    "importance": 1
  },
  {
    "id": "node/866369757",
    "lat": 28.3071756,
    "lon": -16.4215553,
    "name": "La Corujera",
    "category": "place",
    "subtype": "hamlet",
    "importance": 1
  },
  {
    "id": "node/868278413",
    "lat": 28.16408,
    "lon": -16.4325783,
    "name": "Por\u00eds de Abona",
    "category": "place",
    "subtype": "village",
    "importance": 1
  },
  {
    "id": "node/868284963",
    "lat": 28.1440024,
    "lon": -16.4421484,
    "name": "Abades",
    "category": "place",
    "subtype": "hamlet",
    "importance": 1
  },
  {
    "id": "node/868296252",
    "lat": 28.1227571,
    "lon": -16.4611921,
    "name": "Las Listadas",
    "category": "place",
    "subtype": "hamlet",
    "importance": 1
  },
  {
    "id": "node/868307134",
    "lat": 28.1025606,
    "lon": -16.476816,
    "name": "La Caleta",
    "category": "place",
    "subtype": "hamlet",
    "importance": 1
  },
  {
    "id": "node/868307587",
    "lat": 28.1096228,
    "lon": -16.4707086,
    "name": "San Miguel de Tajao",
    "category": "place",
    "subtype": "hamlet",
    "importance": 1
  },
  {
    "id": "node/868319492",
    "lat": 28.1802374,
    "lon": -16.4962494,
    "name": "La Sabinita",
    "category": "place",
    "subtype": "hamlet",
    "importance": 1
  },
  {
    "id": "node/870530229",
    "lat": 28.3927925,
    "lon": -16.4855352,
    "name": "Pino las Mujeres",
    "category": "place",
    "subtype": "locality",
    "importance": 1
  },
  {
    "id": "node/870530238",
    "lat": 28.3931431,
    "lon": -16.4815766,
    "name": "Los Sanguinos",
    "category": "place",
    "subtype": "locality",
    "importance": 1
  },
  {
    "id": "node/870557958",
    "lat": 28.4021218,
    "lon": -16.4912053,
    "name": "Lomo El Canario",
    "category": "place",
    "subtype": "locality",
    "importance": 1
  },
  {
    "id": "node/870557961",
    "lat": 28.3989712,
    "lon": -16.4772626,
    "name": "Monta\u00f1a Micheque",
    "category": "natural",
    "subtype": "peak",
    "importance": 1
  },
  {
    "id": "node/870968495",
    "lat": 28.4250935,
    "lon": -16.306465,
    "name": "Santa Mar\u00eda del Mar",
    "category": "place",
    "subtype": "suburb",
    "importance": 1
  },
  {
    "id": "node/870976795",
    "lat": 28.4371032,
    "lon": -16.3097428,
    "name": "Barranco Grande",
    "category": "place",
    "subtype": "suburb",
    "importance": 1
  },
  {
    "id": "node/870977635",
    "lat": 28.4423275,
    "lon": -16.3150233,
    "name": "El Sobradillo",
    "category": "place",
    "subtype": "suburb",
    "importance": 1
  },
  {
    "id": "node/874514216",
    "lat": 28.578322,
    "lon": -16.1351761,
    "name": "Roque Bermejo",
    "category": "place",
    "subtype": "neighbourhood",
    "importance": 1
  },
  {
    "id": "node/903036933",
    "lat": 28.5094644,
    "lon": -16.1860922,
    "name": "Polic\u00eda Local",
    "category": "amenity",
    "subtype": "police",
    "importance": 1
  },
  {
    "id": "node/903037066",
    "lat": 28.4810676,
    "lon": -16.4128914,
    "name": "Policia Local",
    "category": "amenity",
    "subtype": "police",
    "importance": 1
  },
  {
    "id": "node/903037832",
    "lat": 28.1647736,
    "lon": -16.4321756,
    "name": "Guardia Civil",
    "category": "amenity",
    "subtype": "police",
    "importance": 1
  },
  {
    "id": "node/911172457",
    "lat": 28.2998055,
    "lon": -16.4726071,
    "name": "Monta\u00f1a de Arguazo",
    "category": "natural",
    "subtype": "peak",
    "importance": 1
  },
  {
    "id": "node/918245184",
    "lat": 28.4915381,
    "lon": -16.3125551,
    "name": "Policia Nacional",
    "category": "amenity",
    "subtype": "police",
    "importance": 1
  },
  {
    "id": "node/918245187",
    "lat": 28.4867514,
    "lon": -16.3141298,
    "name": "Policia Municipal",
    "category": "amenity",
    "subtype": "police",
    "importance": 1
  },
  {
    "id": "node/919600208",
    "lat": 28.4895331,
    "lon": -16.3149673,
    "name": "Museo de Historia de Tenerife",
    "category": "tourism",
    "subtype": "museum",
    "importance": 1
  },
  {
    "id": "node/920140357",
    "lat": 28.4423621,
    "lon": -16.301257,
    "name": "El Rosarito",
    "category": "place",
    "subtype": "neighbourhood",
    "importance": 1
  },
  {
    "id": "node/920141748",
    "lat": 28.4440433,
    "lon": -16.3042292,
    "name": "T\u00edncer",
    "category": "place",
    "subtype": "suburb",
    "importance": 1
  },
  {
    "id": "node/920153913",
    "lat": 28.4961362,
    "lon": -16.2161156,
    "name": "Cueva Bermeja",
    "category": "place",
    "subtype": "suburb",
    "importance": 1
  },
  {
    "id": "node/920191225",
    "lat": 28.5232626,
    "lon": -16.2261823,
    "name": "Valle Brosque",
    "category": "place",
    "subtype": "neighbourhood",
    "importance": 1
  },
  {
    "id": "node/920191480",
    "lat": 28.519284,
    "lon": -16.2372866,
    "name": "Valle Crisp\u00edn",
    "category": "place",
    "subtype": "hamlet",
    "importance": 1
  },
  {
    "id": "node/920191503",
    "lat": 28.515136,
    "lon": -16.2414494,
    "name": "Valle Grande",
    "category": "place",
    "subtype": "hamlet",
    "importance": 1
  },
  {
    "id": "node/920199345",
    "lat": 28.5122517,
    "lon": -16.1893114,
    "name": "El Suculum",
    "category": "place",
    "subtype": "quarter",
    "importance": 1
  },
  {
    "id": "node/920203509",
    "lat": 28.4467554,
    "lon": -16.2997811,
    "name": "Taco",
    "category": "place",
    "subtype": "town",
    "importance": 1
  },
  {
    "id": "node/920215003",
    "lat": 28.5245241,
    "lon": -16.2555448,
    "name": "Catalanes",
    "category": "place",
    "subtype": "neighbourhood",
    "importance": 1
  },
  {
    "id": "node/920218156",
    "lat": 28.4562135,
    "lon": -16.3156204,
    "name": "San Miguel de Geneto",
    "category": "place",
    "subtype": "suburb",
    "importance": 1
  },
  {
    "id": "node/920220153",
    "lat": 28.4684719,
    "lon": -16.2893066,
    "name": "La Cuesta",
    "category": "place",
    "subtype": "town",
    "importance": 1
  },
  {
    "id": "node/920224679",
    "lat": 28.4628164,
    "lon": -16.302313,
    "name": "Las Chumberas",
    "category": "place",
    "subtype": "suburb",
    "importance": 1
  },
  {
    "id": "node/920225242",
    "lat": 28.4742815,
    "lon": -16.297822,
    "name": "Finca Espa\u00f1a",
    "category": "place",
    "subtype": "suburb",
    "importance": 1
  },
  {
    "id": "node/920225825",
    "lat": 28.4731153,
    "lon": -16.3057776,
    "name": "Gracia",
    "category": "place",
    "subtype": "suburb",
    "importance": 1
  },
  {
    "id": "node/920226308",
    "lat": 28.4701553,
    "lon": -16.310715,
    "name": "Guajara",
    "category": "place",
    "subtype": "suburb",
    "importance": 1
  },
  {
    "id": "node/920227307",
    "lat": 28.494253,
    "lon": -16.3709155,
    "name": "Guamasa",
    "category": "place",
    "subtype": "suburb",
    "importance": 1
  },
  {
    "id": "node/920229278",
    "lat": 28.5186939,
    "lon": -16.2959219,
    "name": "Las Mercedes",
    "category": "place",
    "subtype": "suburb",
    "importance": 1
  },
  {
    "id": "node/920230050",
    "lat": 28.5189428,
    "lon": -16.2861329,
    "name": "Jardina",
    "category": "place",
    "subtype": "village",
    "importance": 1
  },
  {
    "id": "node/920234242",
    "lat": 28.4910658,
    "lon": -16.3386954,
    "name": "San L\u00e1zaro",
    "category": "place",
    "subtype": "suburb",
    "importance": 1
  },
  {
    "id": "node/920235607",
    "lat": 28.5333325,
    "lon": -16.3636079,
    "name": "Tejina",
    "category": "place",
    "subtype": "village",
    "importance": 1
  },
  {
    "id": "node/920238924",
    "lat": 28.5202151,
    "lon": -16.3942039,
    "name": "Valle de Guerra",
    "category": "place",
    "subtype": "suburb",
    "importance": 1
  },
  {
    "id": "node/924261288",
    "lat": 28.5302073,
    "lon": -16.2864175,
    "name": "La Hija Cambada",
    "category": "place",
    "subtype": "locality",
    "importance": 1
  },
  {
    "id": "node/924261295",
    "lat": 28.5265467,
    "lon": -16.2803585,
    "name": "Llano de los Loros",
    "category": "tourism",
    "subtype": "viewpoint",
    "importance": 1
  },
  {
    "id": "node/964816672",
    "lat": 28.4697049,
    "lon": -16.24816,
    "name": "Fuente de Isabel II",
    "category": "tourism",
    "subtype": "attraction",
    "importance": 1
  },
  {
    "id": "node/966716117",
    "lat": 28.4668704,
    "lon": -16.2467791,
    "name": "Centro de Interpretaci\u00f3n del Castillo de San Crist\u00f3bal",
    "category": "tourism",
    "subtype": "attraction",
    "importance": 1
  },
  {
    "id": "node/1014380162",
    "lat": 28.455353,
    "lon": -16.267209,
    "name": "Buenos Aires",
    "category": "place",
    "subtype": "quarter",
    "importance": 1
  },
  {
    "id": "node/1015110207",
    "lat": 28.4504249,
    "lon": -16.2746337,
    "name": "Chamber\u00ed",
    "category": "place",
    "subtype": "suburb",
    "importance": 1
  },
  {
    "id": "node/1015157373",
    "lat": 28.4602103,
    "lon": -16.2678846,
    "name": "Los Gladiolos",
    "category": "place",
    "subtype": "suburb",
    "importance": 1
  },
  {
    "id": "node/1015159922",
    "lat": 28.4596812,
    "lon": -16.2726812,
    "name": "T\u00edo Pino",
    "category": "place",
    "subtype": "suburb",
    "importance": 1
  },
  {
    "id": "node/1017268099",
    "lat": 28.3977399,
    "lon": -16.3356321,
    "name": "El Varadero",
    "category": "place",
    "subtype": "hamlet",
    "importance": 1
  },
  {
    "id": "node/1036673662",
    "lat": 28.4857715,
    "lon": -16.3159422,
    "name": "San Crist\u00f3bal de La Laguna",
    "category": "place",
    "subtype": "town",
    "importance": 1
  },
  {
    "id": "node/1086632547",
    "lat": 28.5334587,
    "lon": -16.2517424,
    "name": "Degollada de las Hijas",
    "category": "place",
    "subtype": "locality",
    "importance": 1
  },
  {
    "id": "node/1189369327",
    "lat": 28.4149287,
    "lon": -16.492612,
    "name": "La Corujera",
    "category": "place",
    "subtype": "suburb",
    "importance": 1
  },
  {
    "id": "node/1194813483",
    "lat": 28.1706266,
    "lon": -16.4275599,
    "name": "Los Roquitos",
    "category": "place",
    "subtype": "locality",
    "importance": 1
  },
  {
    "id": "node/1197503660",
    "lat": 28.3493004,
    "lon": -16.3681089,
    "name": "Punta de San Blas",
    "category": "place",
    "subtype": "locality",
    "importance": 1
  },
  {
    "id": "node/1199947061",
    "lat": 28.4505127,
    "lon": -16.4523156,
    "name": "La Matanza de Acentejo",
    "category": "place",
    "subtype": "town",
    "importance": 1
  },
  {
    "id": "node/1285465172",
    "lat": 28.3956222,
    "lon": -16.4530913,
    "name": "Piedra del Cuervo",
    "category": "place",
    "subtype": "locality",
    "importance": 1
  },
  {
    "id": "node/1288282103",
    "lat": 28.099637,
    "lon": -16.4816195,
    "name": "Las Maretas",
    "category": "place",
    "subtype": "hamlet",
    "importance": 1
  },
  {
    "id": "node/1305338158",
    "lat": 28.1911529,
    "lon": -16.499419,
    "name": "Casas de Tamadaya de Arriba",
    "category": "place",
    "subtype": "isolated_dwelling",
    "importance": 1
  },
  {
    "id": "node/1305338183",
    "lat": 28.1814583,
    "lon": -16.4845785,
    "name": "La Degollada",
    "category": "place",
    "subtype": "hamlet",
    "importance": 1
  },
  {
    "id": "node/1305338387",
    "lat": 28.187978,
    "lon": -16.4949843,
    "name": "Casas de Tamadaya de Abajo",
    "category": "place",
    "subtype": "isolated_dwelling",
    "importance": 1
  },
  {
    "id": "node/1305338391",
    "lat": 28.1815864,
    "lon": -16.4845336,
    "name": "Fuente del Chorro",
    "category": "tourism",
    "subtype": "attraction",
    "importance": 1
  },
  {
    "id": "node/1312010447",
    "lat": 28.4338335,
    "lon": -16.42131,
    "name": "Salto de las Aguilillas",
    "category": "natural",
    "subtype": "spring",
    "importance": 1
  },
  {
    "id": "node/1322645402",
    "lat": 28.4248138,
    "lon": -16.4835321,
    "name": "Cuatro Caminos",
    "category": "place",
    "subtype": "hamlet",
    "importance": 1
  },
  {
    "id": "node/1322646392",
    "lat": 28.4225082,
    "lon": -16.4822023,
    "name": "El Farrobillo",
    "category": "place",
    "subtype": "suburb",
    "importance": 1
  },
  {
    "id": "node/1322646462",
    "lat": 28.4382116,
    "lon": -16.4570832,
    "name": "San Antonio",
    "category": "place",
    "subtype": "village",
    "importance": 1
  },
  {
    "id": "node/1322646979",
    "lat": 28.4360048,
    "lon": -16.4596017,
    "name": "La Resbala",
    "category": "place",
    "subtype": "neighbourhood",
    "importance": 1
  },
  {
    "id": "node/1338469926",
    "lat": 28.251468,
    "lon": -16.4230095,
    "name": "Ermita de San Jos\u00e9",
    "category": "historic",
    "subtype": "ruins",
    "importance": 1
  },
  {
    "id": "node/1338470278",
    "lat": 28.2621296,
    "lon": -16.4245796,
    "name": "El Salto del Camino Real",
    "category": "place",
    "subtype": "hamlet",
    "importance": 1
  },
  {
    "id": "node/1340394930",
    "lat": 28.5582952,
    "lon": -16.2056785,
    "name": "Mirador del Risco Mogote",
    "category": "tourism",
    "subtype": "viewpoint",
    "importance": 1
  },
  {
    "id": "node/1349744497",
    "lat": 28.4419998,
    "lon": -16.2931094,
    "name": "Monta\u00f1a de Taco",
    "category": "natural",
    "subtype": "volcano",
    "importance": 1
  },
  {
    "id": "node/1349744626",
    "lat": 28.4446497,
    "lon": -16.2888822,
    "name": "Las Moraditas",
    "category": "place",
    "subtype": "suburb",
    "importance": 1
  },
  {
    "id": "node/1350211052",
    "lat": 28.4313072,
    "lon": -16.3102245,
    "name": "Cuevas Blancas",
    "category": "place",
    "subtype": "neighbourhood",
    "importance": 1
  },
  {
    "id": "node/1350211096",
    "lat": 28.4173828,
    "lon": -16.3344043,
    "name": "Monta\u00f1a Jagua",
    "category": "natural",
    "subtype": "volcano",
    "importance": 1
  },
  {
    "id": "node/1350211129",
    "lat": 28.3773408,
    "lon": -16.3902166,
    "name": "La Mesa",
    "category": "place",
    "subtype": "locality",
    "importance": 1
  },
  {
    "id": "node/1351902035",
    "lat": 28.4705802,
    "lon": -16.3274998,
    "name": "Los Bald\u00edos",
    "category": "place",
    "subtype": "suburb",
    "importance": 1
  },
  {
    "id": "node/1351902037",
    "lat": 28.4702583,
    "lon": -16.3406477,
    "name": "Monta\u00f1a de los Marreros",
    "category": "natural",
    "subtype": "peak",
    "importance": 1
  },
  {
    "id": "node/1351902391",
    "lat": 28.4718992,
    "lon": -16.334094,
    "name": "Monta\u00f1a de la Mina",
    "category": "natural",
    "subtype": "peak",
    "importance": 1
  },
  {
    "id": "node/1351918934",
    "lat": 28.5232219,
    "lon": -16.3472291,
    "name": "Las Toscas",
    "category": "place",
    "subtype": "suburb",
    "importance": 1
  },
  {
    "id": "node/1353520854",
    "lat": 28.4716513,
    "lon": -16.2572084,
    "name": "Diego Fern\u00e1ndez Ortega",
    "category": "historic",
    "subtype": "monument",
    "importance": 1
  },
  {
    "id": "node/1355671645",
    "lat": 28.4821779,
    "lon": -16.2402649,
    "name": "Centro de Salud Anaga",
    "category": "amenity",
    "subtype": "clinic",
    "importance": 1
  },
  {
    "id": "node/1356424423",
    "lat": 28.523156,
    "lon": -16.2604577,
    "name": "Cabezo del Viento",
    "category": "natural",
    "subtype": "peak",
    "importance": 1
  },
  {
    "id": "node/1356424702",
    "lat": 28.5191753,
    "lon": -16.2582951,
    "name": "La Fortaleza",
    "category": "place",
    "subtype": "hamlet",
    "importance": 1
  },
  {
    "id": "node/1356424891",
    "lat": 28.5223178,
    "lon": -16.2718121,
    "name": "Roque Lombarda",
    "category": "natural",
    "subtype": "peak",
    "importance": 1
  },
  {
    "id": "node/1356424996",
    "lat": 28.5119135,
    "lon": -16.2608707,
    "name": "Cueva de la Paja",
    "category": "place",
    "subtype": "locality",
    "importance": 1
  },
  {
    "id": "node/1356479593",
    "lat": 28.4844032,
    "lon": -16.2407083,
    "name": "Altura de Paso Alto",
    "category": "natural",
    "subtype": "peak",
    "importance": 1
  },
  {
    "id": "node/1357162206",
    "lat": 28.4792025,
    "lon": -16.4040366,
    "name": "El Cantillo",
    "category": "place",
    "subtype": "village",
    "importance": 1
  },
  {
    "id": "node/1357162208",
    "lat": 28.4813762,
    "lon": -16.397982,
    "name": "El Torre\u00f3n",
    "category": "place",
    "subtype": "suburb",
    "importance": 1
  },
  {
    "id": "node/1357162209",
    "lat": 28.4846252,
    "lon": -16.3920272,
    "name": "Los Naranjeros",
    "category": "place",
    "subtype": "suburb",
    "importance": 1
  },
  {
    "id": "node/1357466400",
    "lat": 28.51708,
    "lon": -16.2168693,
    "name": "Roque Chiguel",
    "category": "natural",
    "subtype": "peak",
    "importance": 1
  },
  {
    "id": "node/1357469808",
    "lat": 28.5055676,
    "lon": -16.2513205,
    "name": "La Muela",
    "category": "natural",
    "subtype": "peak",
    "importance": 1
  },
  {
    "id": "node/1369510012",
    "lat": 28.5195509,
    "lon": -16.2603538,
    "name": "Los Berros",
    "category": "place",
    "subtype": "isolated_dwelling",
    "importance": 1
  },
  {
    "id": "node/1369510042",
    "lat": 28.5269193,
    "lon": -16.2493645,
    "name": "Caser\u00edo la Galer\u00eda",
    "category": "place",
    "subtype": "isolated_dwelling",
    "importance": 1
  },
  {
    "id": "node/1370579125",
    "lat": 28.419783,
    "lon": -16.3568166,
    "name": "Monta\u00f1a Tori\u00f1o",
    "category": "natural",
    "subtype": "volcano",
    "importance": 1
  },
  {
    "id": "node/1377248850",
    "lat": 28.4789226,
    "lon": -16.3095429,
    "name": "Barrio Nuevo",
    "category": "place",
    "subtype": "suburb",
    "importance": 1
  },
  {
    "id": "node/1377248876",
    "lat": 28.5436009,
    "lon": -16.2904277,
    "name": "Bat\u00e1n de Arriba",
    "category": "place",
    "subtype": "isolated_dwelling",
    "importance": 1
  },
  {
    "id": "node/1377248915",
    "lat": 28.4811157,
    "lon": -16.3072175,
    "name": "La Verdellada",
    "category": "place",
    "subtype": "suburb",
    "importance": 1
  },
  {
    "id": "node/1377248938",
    "lat": 28.4764827,
    "lon": -16.3109642,
    "name": "Cercado Mesa",
    "category": "place",
    "subtype": "suburb",
    "importance": 1
  },
  {
    "id": "node/1377248948",
    "lat": 28.5473883,
    "lon": -16.2938599,
    "name": "Bat\u00e1n de Abajo",
    "category": "place",
    "subtype": "isolated_dwelling",
    "importance": 1
  },
  {
    "id": "node/1379242691",
    "lat": 28.5440228,
    "lon": -16.2808482,
    "name": "Cabezo de Toro",
    "category": "place",
    "subtype": "hamlet",
    "importance": 1
  },
  {
    "id": "node/1385007141",
    "lat": 28.4030239,
    "lon": -16.3202706,
    "name": "Policia Local",
    "category": "amenity",
    "subtype": "police",
    "importance": 1
  },
  {
    "id": "node/1386021229",
    "lat": 28.4246419,
    "lon": -16.3772834,
    "name": "Monta\u00f1a Chica",
    "category": "natural",
    "subtype": "peak",
    "importance": 1
  },
  {
    "id": "node/1386388426",
    "lat": 28.4375842,
    "lon": -16.389589,
    "name": "Llano las Goteras",
    "category": "place",
    "subtype": "locality",
    "importance": 1
  },
  {
    "id": "node/1387455924",
    "lat": 28.5411149,
    "lon": -16.3196552,
    "name": "Roque Moquinal",
    "category": "natural",
    "subtype": "peak",
    "importance": 1
  },
  {
    "id": "node/1387455949",
    "lat": 28.5480726,
    "lon": -16.3083913,
    "name": "El Peladero",
    "category": "place",
    "subtype": "hamlet",
    "importance": 1
  },
  {
    "id": "node/1387477301",
    "lat": 28.5324205,
    "lon": -16.329685,
    "name": "La Orilla",
    "category": "place",
    "subtype": "locality",
    "importance": 1
  },
  {
    "id": "node/1390261318",
    "lat": 28.3502705,
    "lon": -16.3699404,
    "name": "Guardia Civil",
    "category": "amenity",
    "subtype": "police",
    "importance": 1
  },
  {
    "id": "node/1390263476",
    "lat": 28.3551665,
    "lon": -16.3703508,
    "name": "Policia Local",
    "category": "amenity",
    "subtype": "police",
    "importance": 1
  },
  {
    "id": "node/1407866194",
    "lat": 28.5467951,
    "lon": -16.1969109,
    "name": "Payba",
    "category": "place",
    "subtype": "neighbourhood",
    "importance": 1
  },
  {
    "id": "node/1407866632",
    "lat": 28.5426816,
    "lon": -16.1287782,
    "name": "Roque Juan B\u00e1ez",
    "category": "natural",
    "subtype": "peak",
    "importance": 1
  },
  {
    "id": "node/1407866783",
    "lat": 28.5491634,
    "lon": -16.2069394,
    "name": "Mirador el Bailadero",
    "category": "tourism",
    "subtype": "viewpoint",
    "importance": 1
  },
  {
    "id": "node/1407867072",
    "lat": 28.5352761,
    "lon": -16.1971734,
    "name": "La Hoya",
    "category": "place",
    "subtype": "isolated_dwelling",
    "importance": 1
  },
  {
    "id": "node/1407867282",
    "lat": 28.5303952,
    "lon": -16.224556,
    "name": "El Majimial",
    "category": "place",
    "subtype": "locality",
    "importance": 1
  },
  {
    "id": "node/1411693952",
    "lat": 28.4146445,
    "lon": -16.4336201,
    "name": "Cueva del Loro",
    "category": "place",
    "subtype": "locality",
    "importance": 1
  },
  {
    "id": "node/1411712565",
    "lat": 28.5531044,
    "lon": -16.2238843,
    "name": "Risco Guayosa",
    "category": "natural",
    "subtype": "peak",
    "importance": 1
  },
  {
    "id": "node/1415493979",
    "lat": 28.5507972,
    "lon": -16.2019904,
    "name": "Roque el Viento",
    "category": "natural",
    "subtype": "peak",
    "importance": 1
  },
  {
    "id": "node/1415494115",
    "lat": 28.5534377,
    "lon": -16.2049146,
    "name": "Pe\u00f1a Friolera",
    "category": "natural",
    "subtype": "peak",
    "importance": 1
  },
  {
    "id": "node/1415494689",
    "lat": 28.5584173,
    "lon": -16.1897051,
    "name": "Roque Anjua",
    "category": "natural",
    "subtype": "peak",
    "importance": 1
  },
  {
    "id": "node/1415495467",
    "lat": 28.5423566,
    "lon": -16.2282415,
    "name": "Cruz de Taganana",
    "category": "place",
    "subtype": "locality",
    "importance": 1
  },
  {
    "id": "node/1415496211",
    "lat": 28.5515103,
    "lon": -16.1876647,
    "name": "Cabezo Limante",
    "category": "natural",
    "subtype": "peak",
    "importance": 1
  },
  {
    "id": "node/1419927778",
    "lat": 28.3644941,
    "lon": -16.4988272,
    "name": "Aguamansa",
    "category": "place",
    "subtype": "suburb",
    "importance": 1
  },
  {
    "id": "node/1419927779",
    "lat": 28.3783957,
    "lon": -16.499427,
    "name": "Pinolere",
    "category": "place",
    "subtype": "suburb",
    "importance": 1
  },
  {
    "id": "node/1419927792",
    "lat": 28.3557523,
    "lon": -16.4902169,
    "name": "Los \u00d3rganos",
    "category": "place",
    "subtype": "locality",
    "importance": 1
  },
  {
    "id": "node/1420512480",
    "lat": 28.4409741,
    "lon": -16.3068532,
    "name": "Las Veredillas",
    "category": "place",
    "subtype": "neighbourhood",
    "importance": 1
  },
  {
    "id": "node/1425343406",
    "lat": 28.569231,
    "lon": -16.2656152,
    "name": "Era de los Cardos",
    "category": "place",
    "subtype": "locality",
    "importance": 1
  },
  {
    "id": "node/1425394856",
    "lat": 28.5603613,
    "lon": -16.2003392,
    "name": "El Campanario",
    "category": "place",
    "subtype": "neighbourhood",
    "importance": 1
  },
  {
    "id": "node/1425394867",
    "lat": 28.5719308,
    "lon": -16.1583829,
    "name": "Roque Bichuelo",
    "category": "natural",
    "subtype": "peak",
    "importance": 1
  },
  {
    "id": "node/1428398723",
    "lat": 28.4493851,
    "lon": -16.3056439,
    "name": "Los Andenes",
    "category": "place",
    "subtype": "suburb",
    "importance": 1
  },
  {
    "id": "node/1436709107",
    "lat": 28.5709977,
    "lon": -16.3078832,
    "name": "Roque Dos Hermanos",
    "category": "natural",
    "subtype": "peak",
    "importance": 1
  },
  {
    "id": "node/1437107925",
    "lat": 28.3001834,
    "lon": -16.3876897,
    "name": "Monta\u00f1a de los Guirres",
    "category": "natural",
    "subtype": "peak",
    "importance": 1
  },
  {
    "id": "node/1437809808",
    "lat": 28.45285,
    "lon": -16.2822117,
    "name": "Las Delicias",
    "category": "place",
    "subtype": "neighbourhood",
    "importance": 1
  },
  {
    "id": "node/1437814474",
    "lat": 28.4167808,
    "lon": -16.4866743,
    "name": "El Cantillo",
    "category": "place",
    "subtype": "suburb",
    "importance": 1
  },
  {
    "id": "node/1437814479",
    "lat": 28.4905448,
    "lon": -16.4122441,
    "name": "San Jeronimo Los Perales",
    "category": "place",
    "subtype": "suburb",
    "importance": 1
  },
  {
    "id": "node/1437814487",
    "lat": 28.5103416,
    "lon": -16.2996637,
    "name": "Vega de las Mercedes",
    "category": "place",
    "subtype": "suburb",
    "importance": 1
  },
  {
    "id": "node/1437814502",
    "lat": 28.4821876,
    "lon": -16.3892804,
    "name": "La Luz",
    "category": "place",
    "subtype": "suburb",
    "importance": 1
  },
  {
    "id": "node/1437814506",
    "lat": 28.4289609,
    "lon": -16.4775859,
    "name": "Bajos y Tagoro",
    "category": "place",
    "subtype": "neighbourhood",
    "importance": 1
  },
  {
    "id": "node/1437814513",
    "lat": 28.483199,
    "lon": -16.419173,
    "name": "Santa Catalina",
    "category": "place",
    "subtype": "suburb",
    "importance": 1
  },
  {
    "id": "node/1437814515",
    "lat": 28.4896946,
    "lon": -16.4009018,
    "name": "Adelantado",
    "category": "place",
    "subtype": "suburb",
    "importance": 1
  },
  {
    "id": "node/1437814517",
    "lat": 28.5045196,
    "lon": -16.4168802,
    "name": "Puerto de la Madera",
    "category": "place",
    "subtype": "hamlet",
    "importance": 1
  },
  {
    "id": "node/1437814519",
    "lat": 28.4874769,
    "lon": -16.3802269,
    "name": "Campo de Golf",
    "category": "place",
    "subtype": "suburb",
    "importance": 1
  },
  {
    "id": "node/1437814525",
    "lat": 28.5067395,
    "lon": -16.3120231,
    "name": "La Vega Lagunera",
    "category": "place",
    "subtype": "suburb",
    "importance": 1
  },
  {
    "id": "node/1437814527",
    "lat": 28.4277256,
    "lon": -16.4828833,
    "name": "La Vera",
    "category": "place",
    "subtype": "suburb",
    "importance": 1
  },
  {
    "id": "node/1437814541",
    "lat": 28.4040298,
    "lon": -16.3239529,
    "name": "Radazul",
    "category": "place",
    "subtype": "suburb",
    "importance": 1
  },
  {
    "id": "node/1437814542",
    "lat": 28.2308201,
    "lon": -16.4560822,
    "name": "Sabina Alta",
    "category": "place",
    "subtype": "hamlet",
    "importance": 1
  },
  {
    "id": "node/1437814551",
    "lat": 28.4724177,
    "lon": -16.3675671,
    "name": "El Ortigal",
    "category": "place",
    "subtype": "suburb",
    "importance": 1
  },
  {
    "id": "node/1437814558",
    "lat": 28.4239131,
    "lon": -16.4782566,
    "name": "Tosca Barrios",
    "category": "place",
    "subtype": "suburb",
    "importance": 1
  },
  {
    "id": "node/1437814560",
    "lat": 28.2200566,
    "lon": -16.4491294,
    "name": "Cruz del Roque",
    "category": "place",
    "subtype": "hamlet",
    "importance": 1
  },
  {
    "id": "node/1437814563",
    "lat": 28.438541,
    "lon": -16.4522544,
    "name": "San Crist\u00f3bal",
    "category": "place",
    "subtype": "neighbourhood",
    "importance": 1
  },
  {
    "id": "node/1437814576",
    "lat": 28.4763177,
    "lon": -16.4026125,
    "name": "Las Casas Altas",
    "category": "place",
    "subtype": "suburb",
    "importance": 1
  },
  {
    "id": "node/1437814577",
    "lat": 28.4867609,
    "lon": -16.3965726,
    "name": "Lomo Colorado",
    "category": "place",
    "subtype": "suburb",
    "importance": 1
  },
  {
    "id": "node/1437814647",
    "lat": 28.2493733,
    "lon": -16.3986654,
    "name": "La Puente",
    "category": "place",
    "subtype": "hamlet",
    "importance": 1
  },
  {
    "id": "node/1437814676",
    "lat": 28.1726018,
    "lon": -16.4976828,
    "name": "Los Gavilanes",
    "category": "place",
    "subtype": "hamlet",
    "importance": 1
  },
  {
    "id": "node/1437814740",
    "lat": 28.488531,
    "lon": -16.4178003,
    "name": "Guayonje",
    "category": "place",
    "subtype": "suburb",
    "importance": 1
  },
  {
    "id": "node/1437814745",
    "lat": 28.5171603,
    "lon": -16.3625377,
    "name": "El Socorro",
    "category": "place",
    "subtype": "suburb",
    "importance": 1
  },
  {
    "id": "node/1437814750",
    "lat": 28.2602638,
    "lon": -16.3927934,
    "name": "Los Barrancos",
    "category": "place",
    "subtype": "hamlet",
    "importance": 1
  },
  {
    "id": "node/1437814756",
    "lat": 28.4918986,
    "lon": -16.2519166,
    "name": "Tahodio",
    "category": "place",
    "subtype": "neighbourhood",
    "importance": 1
  },
  {
    "id": "node/1437814776",
    "lat": 28.5093416,
    "lon": -16.4079668,
    "name": "Tagoro",
    "category": "place",
    "subtype": "suburb",
    "importance": 1
  },
  {
    "id": "node/1437814781",
    "lat": 28.4255848,
    "lon": -16.473991,
    "name": "Tosca de Ana Mar\u00eda",
    "category": "place",
    "subtype": "suburb",
    "importance": 1
  },
  {
    "id": "node/1437814790",
    "lat": 28.4699863,
    "lon": -16.3865469,
    "name": "Barranco de las Lajas",
    "category": "place",
    "subtype": "suburb",
    "importance": 1
  },
  {
    "id": "node/1437814794",
    "lat": 28.4917149,
    "lon": -16.3848106,
    "name": "La Caridad",
    "category": "place",
    "subtype": "suburb",
    "importance": 1
  },
  {
    "id": "node/1437814830",
    "lat": 28.4527199,
    "lon": -16.289766,
    "name": "San Antonio",
    "category": "place",
    "subtype": "neighbourhood",
    "importance": 1
  },
  {
    "id": "node/1437814837",
    "lat": 28.5145404,
    "lon": -16.4171425,
    "name": "Juan Fern\u00e1ndez",
    "category": "place",
    "subtype": "suburb",
    "importance": 1
  },
  {
    "id": "node/1437814843",
    "lat": 28.4589341,
    "lon": -16.4198286,
    "name": "Ravelo Alto",
    "category": "place",
    "subtype": "neighbourhood",
    "importance": 1
  },
  {
    "id": "node/1437814844",
    "lat": 28.2534008,
    "lon": -16.4452991,
    "name": "Aguerche",
    "category": "place",
    "subtype": "locality",
    "importance": 1
  },
  {
    "id": "node/1437814847",
    "lat": 28.4605296,
    "lon": -16.4506992,
    "name": "Las Bre\u00f1as",
    "category": "place",
    "subtype": "neighbourhood",
    "importance": 1
  },
  {
    "id": "node/1437816615",
    "lat": 28.2480974,
    "lon": -16.3998718,
    "name": "Chimaje",
    "category": "place",
    "subtype": "hamlet",
    "importance": 1
  },
  {
    "id": "node/1437816623",
    "lat": 28.4849641,
    "lon": -16.4251458,
    "name": "Las Toscas",
    "category": "place",
    "subtype": "suburb",
    "importance": 1
  },
  {
    "id": "node/1437816659",
    "lat": 28.4033972,
    "lon": -16.3328236,
    "name": "Tabaiba",
    "category": "place",
    "subtype": "suburb",
    "importance": 1
  },
  {
    "id": "node/1437816699",
    "lat": 28.4426798,
    "lon": -16.4635284,
    "name": "Gu\u00eda",
    "category": "place",
    "subtype": "neighbourhood",
    "importance": 1
  },
  {
    "id": "node/1439806918",
    "lat": 28.4380913,
    "lon": -16.4195694,
    "name": "Cruz del Villero",
    "category": "place",
    "subtype": "locality",
    "importance": 1
  },
  {
    "id": "node/1453214066",
    "lat": 28.5353414,
    "lon": -16.3067059,
    "name": "El Lance",
    "category": "place",
    "subtype": "locality",
    "importance": 1
  },
  {
    "id": "node/1453214180",
    "lat": 28.5281272,
    "lon": -16.3222172,
    "name": "El Caidero",
    "category": "place",
    "subtype": "locality",
    "importance": 1
  },
  {
    "id": "node/1453214381",
    "lat": 28.5365616,
    "lon": -16.3021183,
    "name": "Las Cuadras de Don Benito",
    "category": "place",
    "subtype": "locality",
    "importance": 1
  },
  {
    "id": "node/1457833495",
    "lat": 28.4762195,
    "lon": -16.335251,
    "name": "Los Rodeos",
    "category": "place",
    "subtype": "suburb",
    "importance": 1
  },
  {
    "id": "node/1465465972",
    "lat": 28.1714353,
    "lon": -16.4884689,
    "name": "El Viso",
    "category": "place",
    "subtype": "hamlet",
    "importance": 1
  },
  {
    "id": "node/1470041832",
    "lat": 28.169945,
    "lon": -16.4926015,
    "name": "Teguedite",
    "category": "natural",
    "subtype": "peak",
    "importance": 1
  },
  {
    "id": "node/1470041881",
    "lat": 28.1618986,
    "lon": -16.4589128,
    "name": "Casas de la Luz",
    "category": "place",
    "subtype": "isolated_dwelling",
    "importance": 1
  },
  {
    "id": "node/1470041891",
    "lat": 28.167011,
    "lon": -16.4926625,
    "name": "Teguedite",
    "category": "place",
    "subtype": "hamlet",
    "importance": 1
  },
  {
    "id": "node/1575806042",
    "lat": 28.4868256,
    "lon": -16.4232538,
    "name": "Urbanizaci\u00f3n Jard\u00edn del Sol",
    "category": "place",
    "subtype": "hamlet",
    "importance": 1
  },
  {
    "id": "node/1601434140",
    "lat": 28.3733436,
    "lon": -16.405319,
    "name": "Arigo\u00f1a",
    "category": "place",
    "subtype": "locality",
    "importance": 1
  },
  {
    "id": "node/1601434164",
    "lat": 28.3670328,
    "lon": -16.3978777,
    "name": "Cruz del Camino",
    "category": "place",
    "subtype": "hamlet",
    "importance": 1
  },
  {
    "id": "node/1601434168",
    "lat": 28.3639083,
    "lon": -16.406651,
    "name": "El Pino",
    "category": "place",
    "subtype": "hamlet",
    "importance": 1
  },
  {
    "id": "node/1601434193",
    "lat": 28.3847909,
    "lon": -16.4113769,
    "name": "Igonse",
    "category": "natural",
    "subtype": "peak",
    "importance": 1
  },
  {
    "id": "node/1601434199",
    "lat": 28.3663231,
    "lon": -16.3966382,
    "name": "La Monta\u00f1eta",
    "category": "place",
    "subtype": "hamlet",
    "importance": 1
  },
  {
    "id": "node/1601434209",
    "lat": 28.3655701,
    "lon": -16.3959536,
    "name": "Las Caitanas",
    "category": "place",
    "subtype": "hamlet",
    "importance": 1
  },
  {
    "id": "node/1601434219",
    "lat": 28.3637349,
    "lon": -16.3943299,
    "name": "Morra del Pino",
    "category": "place",
    "subtype": "neighbourhood",
    "importance": 1
  },
  {
    "id": "node/1601434222",
    "lat": 28.3826235,
    "lon": -16.4210357,
    "name": "Piedras de Carcho",
    "category": "place",
    "subtype": "locality",
    "importance": 1
  },
  {
    "id": "node/1601434239",
    "lat": 28.3787177,
    "lon": -16.4171316,
    "name": "Risco de La Vera",
    "category": "tourism",
    "subtype": "viewpoint",
    "importance": 1
  },
  {
    "id": "node/1601828318",
    "lat": 28.3352596,
    "lon": -16.470478,
    "name": "Pico de Cho Marcial",
    "category": "natural",
    "subtype": "peak",
    "importance": 1
  },
  {
    "id": "node/1611060599",
    "lat": 28.1217981,
    "lon": -16.4624534,
    "name": "La Jaca",
    "category": "place",
    "subtype": "hamlet",
    "importance": 1
  },
  {
    "id": "node/1611060600",
    "lat": 28.1056454,
    "lon": -16.4735152,
    "name": "Las Arenas",
    "category": "place",
    "subtype": "hamlet",
    "importance": 1
  },
  {
    "id": "node/1660970560",
    "lat": 28.4495561,
    "lon": -16.2826206,
    "name": "Las Cabritas",
    "category": "place",
    "subtype": "neighbourhood",
    "importance": 1
  },
  {
    "id": "node/1672845379",
    "lat": 28.4452436,
    "lon": -16.4200196,
    "name": "Baja Camello",
    "category": "place",
    "subtype": "locality",
    "importance": 1
  },
  {
    "id": "node/1672845383",
    "lat": 28.448014,
    "lon": -16.4300954,
    "name": "El Pirul",
    "category": "place",
    "subtype": "hamlet",
    "importance": 1
  },
  {
    "id": "node/1672845391",
    "lat": 28.4440929,
    "lon": -16.4382628,
    "name": "El Revent\u00f3n",
    "category": "place",
    "subtype": "hamlet",
    "importance": 1
  },
  {
    "id": "node/1672845396",
    "lat": 28.4341819,
    "lon": -16.4294868,
    "name": "Monta\u00f1a del Filo",
    "category": "natural",
    "subtype": "peak",
    "importance": 1
  },
  {
    "id": "node/1672845399",
    "lat": 28.434048,
    "lon": -16.4249139,
    "name": "Monta\u00f1a el Pozo",
    "category": "natural",
    "subtype": "peak",
    "importance": 1
  },
  {
    "id": "node/1672845713",
    "lat": 28.4398896,
    "lon": -16.4510861,
    "name": "Monta\u00f1as de San Antonio",
    "category": "natural",
    "subtype": "volcano",
    "importance": 1
  },
  {
    "id": "node/1672845789",
    "lat": 28.4403444,
    "lon": -16.4492417,
    "name": "Monta\u00f1a de San Antonio",
    "category": "natural",
    "subtype": "volcano",
    "importance": 1
  },
  {
    "id": "node/1672846046",
    "lat": 28.4432348,
    "lon": -16.4470403,
    "name": "Monta\u00f1a de la Atalaya",
    "category": "natural",
    "subtype": "volcano",
    "importance": 1
  },
  {
    "id": "node/1672846191",
    "lat": 28.4452944,
    "lon": -16.4434452,
    "name": "Monta\u00f1a de las Calderetas",
    "category": "natural",
    "subtype": "volcano",
    "importance": 1
  },
  {
    "id": "node/1676371659",
    "lat": 28.482882,
    "lon": -16.3259805,
    "name": "El Coromoto",
    "category": "place",
    "subtype": "suburb",
    "importance": 1
  },
  {
    "id": "node/1677798738",
    "lat": 28.4534706,
    "lon": -16.3265041,
    "name": "El Centenero",
    "category": "place",
    "subtype": "hamlet",
    "importance": 1
  },
  {
    "id": "node/1678223711",
    "lat": 28.3401481,
    "lon": -16.4182217,
    "name": "Polic\u00eda Municipal",
    "category": "amenity",
    "subtype": "police",
    "importance": 1
  },
  {
    "id": "node/1678814941",
    "lat": 28.4914352,
    "lon": -16.3548876,
    "name": "El Portezuelo Alto",
    "category": "place",
    "subtype": "village",
    "importance": 1
  },
  {
    "id": "node/1680710462",
    "lat": 28.4487846,
    "lon": -16.2957855,
    "name": "Polic\u00eda Municipal",
    "category": "amenity",
    "subtype": "police",
    "importance": 1
  },
  {
    "id": "node/1681666224",
    "lat": 28.3748665,
    "lon": -16.4978459,
    "name": "Los Cominos",
    "category": "place",
    "subtype": "hamlet",
    "importance": 1
  },
  {
    "id": "node/1681666225",
    "lat": 28.3703002,
    "lon": -16.4934387,
    "name": "Monta\u00f1a de M\u00e1mio",
    "category": "natural",
    "subtype": "peak",
    "importance": 1
  },
  {
    "id": "node/1681666226",
    "lat": 28.3469688,
    "lon": -16.48195,
    "name": "Monta\u00f1a de las Cuevas",
    "category": "natural",
    "subtype": "peak",
    "importance": 1
  },
  {
    "id": "node/1681666227",
    "lat": 28.373042,
    "lon": -16.4685921,
    "name": "Roques Blancos",
    "category": "natural",
    "subtype": "peak",
    "importance": 1
  },
  {
    "id": "node/1682010030",
    "lat": 28.4092032,
    "lon": -16.4360243,
    "name": "El Rinc\u00f3n",
    "category": "place",
    "subtype": "locality",
    "importance": 1
  },
  {
    "id": "node/1683177938",
    "lat": 28.4574224,
    "lon": -16.2826447,
    "name": "Chimisay",
    "category": "place",
    "subtype": "neighbourhood",
    "importance": 1
  },
  {
    "id": "node/1683177946",
    "lat": 28.456722,
    "lon": -16.2850366,
    "name": "C\u00e9sar Casariego",
    "category": "place",
    "subtype": "neighbourhood",
    "importance": 1
  },
  {
    "id": "node/1683177951",
    "lat": 28.4536479,
    "lon": -16.2863279,
    "name": "Santa Clara",
    "category": "place",
    "subtype": "neighbourhood",
    "importance": 1
  },
  {
    "id": "node/1685146260",
    "lat": 28.399357,
    "lon": -16.3691771,
    "name": "Monta\u00f1a del Castillo",
    "category": "natural",
    "subtype": "peak",
    "importance": 1
  },
  {
    "id": "node/1685974472",
    "lat": 28.348632,
    "lon": -16.4203178,
    "name": "La Monta\u00f1eta",
    "category": "place",
    "subtype": "hamlet",
    "importance": 1
  },
  {
    "id": "node/1686907300",
    "lat": 28.404922,
    "lon": -16.3861415,
    "name": "El Aserradero",
    "category": "place",
    "subtype": "hamlet",
    "importance": 1
  },
  {
    "id": "node/1695412340",
    "lat": 28.3451928,
    "lon": -16.4194552,
    "name": "Cosme",
    "category": "place",
    "subtype": "hamlet",
    "importance": 1
  },
  {
    "id": "node/1695412341",
    "lat": 28.3651242,
    "lon": -16.4232604,
    "name": "El Roque Partido",
    "category": "place",
    "subtype": "locality",
    "importance": 1
  },
  {
    "id": "node/1695412342",
    "lat": 28.3754941,
    "lon": -16.4393842,
    "name": "Los Lomitos",
    "category": "place",
    "subtype": "locality",
    "importance": 1
  },
  {
    "id": "node/1696871446",
    "lat": 28.3979865,
    "lon": -16.4232465,
    "name": "Monta\u00f1a Chirigel",
    "category": "natural",
    "subtype": "peak",
    "importance": 1
  },
  {
    "id": "node/1696871447",
    "lat": 28.3851223,
    "lon": -16.4244175,
    "name": "Corral del Carcho",
    "category": "place",
    "subtype": "locality",
    "importance": 1
  },
  {
    "id": "node/1696871450",
    "lat": 28.4050846,
    "lon": -16.422582,
    "name": "El Diablillo",
    "category": "natural",
    "subtype": "peak",
    "importance": 1
  },
  {
    "id": "node/1696871451",
    "lat": 28.3933108,
    "lon": -16.4195065,
    "name": "Monta\u00f1a Amarnia",
    "category": "natural",
    "subtype": "peak",
    "importance": 1
  },
  {
    "id": "node/1696871452",
    "lat": 28.3775616,
    "lon": -16.4434256,
    "name": "Monta\u00f1a Colorada",
    "category": "natural",
    "subtype": "peak",
    "importance": 1
  },
  {
    "id": "node/1696871453",
    "lat": 28.4094525,
    "lon": -16.408302,
    "name": "Monta\u00f1a del Dornajo",
    "category": "natural",
    "subtype": "peak",
    "importance": 1
  },
  {
    "id": "node/1696871930",
    "lat": 28.3806482,
    "lon": -16.4455754,
    "name": "Monta\u00f1a Articosia",
    "category": "natural",
    "subtype": "peak",
    "importance": 1
  },
  {
    "id": "node/1696871931",
    "lat": 28.3835911,
    "lon": -16.4544282,
    "name": "Morra Itote",
    "category": "natural",
    "subtype": "peak",
    "importance": 1
  },
  {
    "id": "node/1697905857",
    "lat": 28.4161278,
    "lon": -16.3794145,
    "name": "Bedijo",
    "category": "place",
    "subtype": "isolated_dwelling",
    "importance": 1
  },
  {
    "id": "node/1697905881",
    "lat": 28.3997225,
    "lon": -16.3706429,
    "name": "La Gollada",
    "category": "place",
    "subtype": "isolated_dwelling",
    "importance": 1
  },
  {
    "id": "node/1697905885",
    "lat": 28.4076547,
    "lon": -16.3653823,
    "name": "Monta\u00f1a de la Culata",
    "category": "natural",
    "subtype": "peak",
    "importance": 1
  },
  {
    "id": "node/1701381845",
    "lat": 28.4895965,
    "lon": -16.2724166,
    "name": "Cabezo de las Mesas",
    "category": "natural",
    "subtype": "peak",
    "importance": 1
  },
  {
    "id": "node/1701381846",
    "lat": 28.4936227,
    "lon": -16.2830804,
    "name": "El Castillo",
    "category": "place",
    "subtype": "isolated_dwelling",
    "importance": 1
  },
  {
    "id": "node/1701381847",
    "lat": 28.4889648,
    "lon": -16.2774064,
    "name": "El Pedregal",
    "category": "place",
    "subtype": "hamlet",
    "importance": 1
  },
  {
    "id": "node/1701381848",
    "lat": 28.4838371,
    "lon": -16.2787215,
    "name": "El Toscal",
    "category": "place",
    "subtype": "hamlet",
    "importance": 1
  },
  {
    "id": "node/1701381850",
    "lat": 28.4817352,
    "lon": -16.2722555,
    "name": "Las Guirreras",
    "category": "place",
    "subtype": "locality",
    "importance": 1
  },
  {
    "id": "node/1701381851",
    "lat": 28.4948545,
    "lon": -16.2715205,
    "name": "Lomo de las Casillas",
    "category": "place",
    "subtype": "hamlet",
    "importance": 1
  },
  {
    "id": "node/1701381852",
    "lat": 28.5022433,
    "lon": -16.2802447,
    "name": "Pico Hilario",
    "category": "natural",
    "subtype": "peak",
    "importance": 1
  },
  {
    "id": "node/1710767310",
    "lat": 28.4500659,
    "lon": -16.3905408,
    "name": "Monta\u00f1a el Haya",
    "category": "natural",
    "subtype": "peak",
    "importance": 1
  },
  {
    "id": "node/1712047770",
    "lat": 28.4618234,
    "lon": -16.3805733,
    "name": "Monta\u00f1a Facundo",
    "category": "natural",
    "subtype": "volcano",
    "importance": 1
  },
  {
    "id": "node/1712047777",
    "lat": 28.5040779,
    "lon": -16.3829539,
    "name": "Monta\u00f1a Guerra",
    "category": "natural",
    "subtype": "peak",
    "importance": 1
  },
  {
    "id": "node/1712047779",
    "lat": 28.5014019,
    "lon": -16.3731149,
    "name": "Monta\u00f1a Tabares",
    "category": "natural",
    "subtype": "peak",
    "importance": 1
  },
  {
    "id": "node/1712047796",
    "lat": 28.443727,
    "lon": -16.390883,
    "name": "Monta\u00f1a el Cerro",
    "category": "natural",
    "subtype": "peak",
    "importance": 1
  },
  {
    "id": "node/1712047801",
    "lat": 28.4891747,
    "lon": -16.3913442,
    "name": "Monta\u00f1a la Retama",
    "category": "natural",
    "subtype": "volcano",
    "importance": 1
  },
  {
    "id": "node/1719214235",
    "lat": 28.5524121,
    "lon": -16.2553757,
    "name": "El Front\u00f3n",
    "category": "place",
    "subtype": "neighbourhood",
    "importance": 1
  },
  {
    "id": "node/1719214236",
    "lat": 28.5535233,
    "lon": -16.2355024,
    "name": "Era del Camino",
    "category": "place",
    "subtype": "isolated_dwelling",
    "importance": 1
  },
  {
    "id": "node/1719214237",
    "lat": 28.553186,
    "lon": -16.2380184,
    "name": "La Meseta",
    "category": "place",
    "subtype": "locality",
    "importance": 1
  },
  {
    "id": "node/1719214238",
    "lat": 28.552215,
    "lon": -16.2506779,
    "name": "Lomo Centeno",
    "category": "place",
    "subtype": "neighbourhood",
    "importance": 1
  },
  {
    "id": "node/1719214240",
    "lat": 28.5567294,
    "lon": -16.2202137,
    "name": "Los Naranjos",
    "category": "place",
    "subtype": "neighbourhood",
    "importance": 1
  },
  {
    "id": "node/1719214243",
    "lat": 28.5551226,
    "lon": -16.2319882,
    "name": "Roque del Fraile",
    "category": "natural",
    "subtype": "peak",
    "importance": 1
  },
  {
    "id": "node/1719214244",
    "lat": 28.5545995,
    "lon": -16.2301388,
    "name": "Roque la Monja",
    "category": "natural",
    "subtype": "peak",
    "importance": 1
  },
  {
    "id": "node/1719214256",
    "lat": 28.5619559,
    "lon": -16.2144366,
    "name": "Lomo Blanco",
    "category": "place",
    "subtype": "neighbourhood",
    "importance": 1
  },
  {
    "id": "node/1721089821",
    "lat": 28.3177529,
    "lon": -16.4167987,
    "name": "Fuente de Chacaica",
    "category": "tourism",
    "subtype": "attraction",
    "importance": 1
  },
  {
    "id": "node/1721089825",
    "lat": 28.3131525,
    "lon": -16.4946145,
    "name": "Fuente de Mal Abrigo",
    "category": "natural",
    "subtype": "spring",
    "importance": 1
  },
  {
    "id": "node/1721089851",
    "lat": 28.3160644,
    "lon": -16.496149,
    "name": "Piedras de Mal Abrigo",
    "category": "place",
    "subtype": "locality",
    "importance": 1
  },
  {
    "id": "node/1721146997",
    "lat": 28.4600245,
    "lon": -16.2902792,
    "name": "Monta\u00f1a de Ofra",
    "category": "natural",
    "subtype": "peak",
    "importance": 1
  },
  {
    "id": "node/1722113346",
    "lat": 28.5639991,
    "lon": -16.2674438,
    "name": "Mirador Barranco la Fajana.",
    "category": "tourism",
    "subtype": "viewpoint",
    "importance": 1
  },
  {
    "id": "node/1722984634",
    "lat": 28.3292524,
    "lon": -16.3633322,
    "name": "Llano de la Virgen",
    "category": "place",
    "subtype": "locality",
    "importance": 1
  },
  {
    "id": "node/1723049855",
    "lat": 28.4396557,
    "lon": -16.486821,
    "name": "Roque de Santa \u00darsula",
    "category": "natural",
    "subtype": "peak",
    "importance": 1
  },
  {
    "id": "node/1723869054",
    "lat": 28.5103564,
    "lon": -16.3452752,
    "name": "La Caldera",
    "category": "place",
    "subtype": "locality",
    "importance": 1
  },
  {
    "id": "node/1723869200",
    "lat": 28.5100157,
    "lon": -16.3472286,
    "name": "Monta\u00f1a la Calderita",
    "category": "natural",
    "subtype": "volcano",
    "importance": 1
  },
  {
    "id": "node/1724644695",
    "lat": 28.4694894,
    "lon": -16.2567274,
    "name": "Jefatura Superior de Polic\u00eda",
    "category": "amenity",
    "subtype": "police",
    "importance": 1
  },
  {
    "id": "node/1769934046",
    "lat": 28.4300167,
    "lon": -16.4361179,
    "name": "La Morra",
    "category": "place",
    "subtype": "locality",
    "importance": 1
  },
  {
    "id": "node/1770578179",
    "lat": 28.5092601,
    "lon": -16.4208963,
    "name": "El Pris",
    "category": "place",
    "subtype": "suburb",
    "importance": 1
  },
  {
    "id": "node/1770578180",
    "lat": 28.5033774,
    "lon": -16.4239192,
    "name": "Mesa del Mar",
    "category": "place",
    "subtype": "suburb",
    "importance": 1
  },
  {
    "id": "node/1771803734",
    "lat": 28.3175486,
    "lon": -16.4199274,
    "name": "El Auch\u00f3n",
    "category": "place",
    "subtype": "locality",
    "importance": 1
  },
  {
    "id": "node/1771803736",
    "lat": 28.3167622,
    "lon": -16.4198164,
    "name": "La Raya",
    "category": "place",
    "subtype": "hamlet",
    "importance": 1
  },
  {
    "id": "node/1781737183",
    "lat": 28.3798568,
    "lon": -16.4939605,
    "name": "Lomo la Canaria",
    "category": "place",
    "subtype": "locality",
    "importance": 1
  },
  {
    "id": "node/1781737184",
    "lat": 28.3764698,
    "lon": -16.4902352,
    "name": "Lomo los Bobos",
    "category": "place",
    "subtype": "locality",
    "importance": 1
  },
  {
    "id": "node/1858239063",
    "lat": 28.520117,
    "lon": -16.3139152,
    "name": "La Cruz",
    "category": "place",
    "subtype": "hamlet",
    "importance": 1
  },
  {
    "id": "node/1881176379",
    "lat": 28.5488274,
    "lon": -16.1865761,
    "name": "La Cancelilla",
    "category": "place",
    "subtype": "locality",
    "importance": 1
  },
  {
    "id": "node/1921012291",
    "lat": 28.5310254,
    "lon": -16.1541951,
    "name": "El Campanario",
    "category": "natural",
    "subtype": "peak",
    "importance": 1
  },
  {
    "id": "node/1922001288",
    "lat": 28.5189933,
    "lon": -16.1654844,
    "name": "El Balayo",
    "category": "place",
    "subtype": "neighbourhood",
    "importance": 1
  },
  {
    "id": "node/1922774366",
    "lat": 28.4819061,
    "lon": -16.2405176,
    "name": "Centro de Salud. Casa del Mar",
    "category": "amenity",
    "subtype": "hospital",
    "importance": 1
  },
  {
    "id": "node/1923412111",
    "lat": 28.3001824,
    "lon": -16.454046,
    "name": "Fuga de los Cuatro Reales",
    "category": "place",
    "subtype": "locality",
    "importance": 1
  },
  {
    "id": "node/1923439687",
    "lat": 28.3140416,
    "lon": -16.4444727,
    "name": "El Revent\u00f3n",
    "category": "place",
    "subtype": "locality",
    "importance": 1
  },
  {
    "id": "node/1941506778",
    "lat": 28.4029556,
    "lon": -16.4779617,
    "name": "Lomo G\u00f3mez",
    "category": "place",
    "subtype": "locality",
    "importance": 1
  },
  {
    "id": "node/1941506784",
    "lat": 28.4029567,
    "lon": -16.4722201,
    "name": "Palo Blanco",
    "category": "place",
    "subtype": "locality",
    "importance": 1
  },
  {
    "id": "node/1944325403",
    "lat": 28.4102647,
    "lon": -16.422769,
    "name": "Monta\u00f1a del Cascajo",
    "category": "natural",
    "subtype": "peak",
    "importance": 1
  },
  {
    "id": "node/1944839810",
    "lat": 28.2605009,
    "lon": -16.4284403,
    "name": "Tambora de Abajo",
    "category": "place",
    "subtype": "hamlet",
    "importance": 1
  },
  {
    "id": "node/1944839841",
    "lat": 28.2626608,
    "lon": -16.4307867,
    "name": "Tambora de Arriba",
    "category": "place",
    "subtype": "hamlet",
    "importance": 1
  },
  {
    "id": "node/1973085406",
    "lat": 28.4566765,
    "lon": -16.2560508,
    "name": "Los Llanos",
    "category": "place",
    "subtype": "suburb",
    "importance": 1
  },
  {
    "id": "node/1973100623",
    "lat": 28.4625739,
    "lon": -16.2499599,
    "name": "El Cabo",
    "category": "place",
    "subtype": "suburb",
    "importance": 1
  },
  {
    "id": "node/1977357853",
    "lat": 28.5616601,
    "lon": -16.2301993,
    "name": "El Chorro",
    "category": "place",
    "subtype": "neighbourhood",
    "importance": 1
  },
  {
    "id": "node/1977854606",
    "lat": 28.3829764,
    "lon": -16.4472981,
    "name": "Articosa",
    "category": "place",
    "subtype": "locality",
    "importance": 1
  },
  {
    "id": "node/1982087592",
    "lat": 28.4274818,
    "lon": -16.3066182,
    "name": "Alisios I",
    "category": "place",
    "subtype": "neighbourhood",
    "importance": 1
  },
  {
    "id": "node/1982087593",
    "lat": 28.4298245,
    "lon": -16.3081163,
    "name": "Alisios II",
    "category": "place",
    "subtype": "neighbourhood",
    "importance": 1
  },
  {
    "id": "node/2000165304",
    "lat": 28.4087699,
    "lon": -16.3843642,
    "name": "El Front\u00f3n",
    "category": "place",
    "subtype": "locality",
    "importance": 1
  },
  {
    "id": "node/2000165308",
    "lat": 28.4480156,
    "lon": -16.376992,
    "name": "Las Erillas",
    "category": "place",
    "subtype": "neighbourhood",
    "importance": 1
  },
  {
    "id": "node/2000219904",
    "lat": 28.2132914,
    "lon": -16.4855103,
    "name": "El Bueno",
    "category": "place",
    "subtype": "hamlet",
    "importance": 1
  },
  {
    "id": "node/2002270668",
    "lat": 28.4469597,
    "lon": -16.2829453,
    "name": "Llano Alegre",
    "category": "place",
    "subtype": "neighbourhood",
    "importance": 1
  },
  {
    "id": "node/2002334725",
    "lat": 28.4614362,
    "lon": -16.2781977,
    "name": "Ballester",
    "category": "place",
    "subtype": "suburb",
    "importance": 1
  },
  {
    "id": "node/2002334726",
    "lat": 28.4579128,
    "lon": -16.2794066,
    "name": "Camino del Hierro",
    "category": "place",
    "subtype": "suburb",
    "importance": 1
  },
  {
    "id": "node/2002334739",
    "lat": 28.4552175,
    "lon": -16.2893424,
    "name": "Finca La Multa",
    "category": "place",
    "subtype": "neighbourhood",
    "importance": 1
  },
  {
    "id": "node/2002334741",
    "lat": 28.4543867,
    "lon": -16.2744722,
    "name": "Garc\u00eda Esc\u00e1mez",
    "category": "place",
    "subtype": "suburb",
    "importance": 1
  },
  {
    "id": "node/2002334747",
    "lat": 28.4501035,
    "lon": -16.2854807,
    "name": "Juan XXIII",
    "category": "place",
    "subtype": "neighbourhood",
    "importance": 1
  },
  {
    "id": "node/2002334752",
    "lat": 28.4512408,
    "lon": -16.2870179,
    "name": "Las Retamas",
    "category": "place",
    "subtype": "neighbourhood",
    "importance": 1
  },
  {
    "id": "node/2002334755",
    "lat": 28.4545844,
    "lon": -16.2769627,
    "name": "Miramar",
    "category": "place",
    "subtype": "suburb",
    "importance": 1
  },
  {
    "id": "node/2002334756",
    "lat": 28.4492464,
    "lon": -16.2893425,
    "name": "Nuevo Obrero",
    "category": "place",
    "subtype": "neighbourhood",
    "importance": 1
  },
  {
    "id": "node/2002334760",
    "lat": 28.4471401,
    "lon": -16.2885516,
    "name": "San P\u00edo X",
    "category": "place",
    "subtype": "neighbourhood",
    "importance": 1
  },
  {
    "id": "node/2002334765",
    "lat": 28.4581189,
    "lon": -16.2758121,
    "name": "Trist\u00e1n",
    "category": "place",
    "subtype": "suburb",
    "importance": 1
  },
  {
    "id": "node/2002334771",
    "lat": 28.4644653,
    "lon": -16.2807819,
    "name": "Villa Ben\u00edtez",
    "category": "place",
    "subtype": "suburb",
    "importance": 1
  },
  {
    "id": "node/2002334773",
    "lat": 28.4621914,
    "lon": -16.2841977,
    "name": "Vistabella",
    "category": "place",
    "subtype": "suburb",
    "importance": 1
  },
  {
    "id": "node/2010262092",
    "lat": 28.4225944,
    "lon": -16.3028043,
    "name": "Polic\u00eda Municipal",
    "category": "amenity",
    "subtype": "police",
    "importance": 1
  },
  {
    "id": "node/2013674222",
    "lat": 28.466576,
    "lon": -16.267467,
    "name": "Buenavista",
    "category": "place",
    "subtype": "suburb",
    "importance": 1
  },
  {
    "id": "node/2013674223",
    "lat": 28.4631303,
    "lon": -16.2722839,
    "name": "Cruz del Se\u00f1or",
    "category": "place",
    "subtype": "suburb",
    "importance": 1
  },
  {
    "id": "node/2013674224",
    "lat": 28.4676666,
    "lon": -16.280163,
    "name": "Cuesta Piedra",
    "category": "place",
    "subtype": "suburb",
    "importance": 1
  },
  {
    "id": "node/2013674225",
    "lat": 28.4637201,
    "lon": -16.2652649,
    "name": "El Chapatal",
    "category": "place",
    "subtype": "suburb",
    "importance": 1
  },
  {
    "id": "node/2013674226",
    "lat": 28.4658138,
    "lon": -16.2738611,
    "name": "El Per\u00fa",
    "category": "place",
    "subtype": "suburb",
    "importance": 1
  },
  {
    "id": "node/2013674227",
    "lat": 28.4721361,
    "lon": -16.2764799,
    "name": "Salud Alto",
    "category": "place",
    "subtype": "neighbourhood",
    "importance": 1
  },
  {
    "id": "node/2013674228",
    "lat": 28.4697618,
    "lon": -16.2703944,
    "name": "Salud Bajo",
    "category": "place",
    "subtype": "neighbourhood",
    "importance": 1
  },
  {
    "id": "node/2013674229",
    "lat": 28.4671843,
    "lon": -16.2775018,
    "name": "Villa Ascensi\u00f3n",
    "category": "place",
    "subtype": "suburb",
    "importance": 1
  },
  {
    "id": "node/2014816510",
    "lat": 28.4616206,
    "lon": -16.2528455,
    "name": "Cuatro Torres",
    "category": "place",
    "subtype": "suburb",
    "importance": 1
  },
  {
    "id": "node/2014816511",
    "lat": 28.461007,
    "lon": -16.2591319,
    "name": "La Salle",
    "category": "place",
    "subtype": "suburb",
    "importance": 1
  },
  {
    "id": "node/2014816512",
    "lat": 28.4592798,
    "lon": -16.2607331,
    "name": "La Victoria",
    "category": "place",
    "subtype": "suburb",
    "importance": 1
  },
  {
    "id": "node/2014816513",
    "lat": 28.4641927,
    "lon": -16.2540604,
    "name": "San Sebasti\u00e1n",
    "category": "place",
    "subtype": "suburb",
    "importance": 1
  },
  {
    "id": "node/2020565338",
    "lat": 28.5349676,
    "lon": -16.2685002,
    "name": "T\u00fanel de Las Hadas",
    "category": "tourism",
    "subtype": "attraction",
    "importance": 1
  },
  {
    "id": "node/2024960373",
    "lat": 28.1471749,
    "lon": -16.4602502,
    "name": "Laja Blanca",
    "category": "place",
    "subtype": "isolated_dwelling",
    "importance": 1
  },
  {
    "id": "node/2024960377",
    "lat": 28.1591125,
    "lon": -16.4659068,
    "name": "Llano de Delgado",
    "category": "place",
    "subtype": "locality",
    "importance": 1
  },
  {
    "id": "node/2024960378",
    "lat": 28.1827848,
    "lon": -16.43632,
    "name": "Monta\u00f1a de Magua",
    "category": "natural",
    "subtype": "peak",
    "importance": 1
  },
  {
    "id": "node/2024960379",
    "lat": 28.1549308,
    "lon": -16.4592766,
    "name": "Monta\u00f1a la Centinela",
    "category": "natural",
    "subtype": "peak",
    "importance": 1
  },
  {
    "id": "node/2024960380",
    "lat": 28.1705498,
    "lon": -16.4556807,
    "name": "Pared\u00f3n Blanco",
    "category": "place",
    "subtype": "isolated_dwelling",
    "importance": 1
  },
  {
    "id": "node/2027958248",
    "lat": 28.4798891,
    "lon": -16.2578133,
    "name": "Ifara",
    "category": "place",
    "subtype": "suburb",
    "importance": 1
  },